[{"id":"AD","iso_a3":"AND","fips":"AN","wfb":1,"ethnologue":1,"continent":"EU","name":"Andorra","autonym":null,"introduction":"The landlocked Principality of Andorra is one of the smallest states in Europe, nestled high in the Pyrenees between the French and Spanish borders. For 715 years, from 1278 to 1993, Andorrans lived under a unique coprincipality, ruled by French and Spanish leaders (from 1607 onward, the French chief of state and the Bishop of Urgell). In 1993, this feudal system was modified with the introduction of a modern, constitution; the co-princes remained as titular heads of state, but the government transformed into a parliamentary democracy. ++ Andorra has become a popular tourist destination visited by approximately 10 million people each year drawn by the winter sports, summer climate, and duty-free shopping. Andorra has also become a wealthy international commercial center because of its mature banking sector and low taxes. As part of its effort to modernize its economy, Andorra has opened to foreign investment, and engaged in other reforms, such as advancing tax initiatives aimed at supporting a broader infrastructure. Although not a member of the EU, Andorra enjoys a special relationship with the organization and uses the euro as its national currency.","overview":"Andorra is a tiny, independent principality situated between France and Spain in the Pyrenees mountains. It’s known for its ski resorts and a tax-haven status that encourages duty-free shopping. Capital Andorra la Vella has boutiques and jewelers on Meritxell Avenue and several shopping centers. The old quarter, Barri Antic, houses Romanesque Santa Coloma Church, with a circular bell tower.","created_by":1,"updated_by":1,"created_at":"2019-05-02T21:30:22.000000Z","updated_at":"2020-12-18T19:10:07.000000Z","status":"published","population":77265,"country_unique":1,"refugee_count":0,"literacy":99,"languages_count":9,"languages":[{"iso":"hin","glotto_id":"hind1269","iso1":"hi","name":"Hindi","autonym":"हिंदी ","family":null,"maps":"India: Index Map","level":"L","population":180000000,"latitude":25,"longitude":77,"country_id":"IN","status_id":"1","laravel_through_key":"AD"},{"iso":"ita","glotto_id":"ital1282","iso1":"it","name":"Italian","autonym":"italiano","family":null,"maps":"Liechtenstein and Switzerland","level":"L","population":55000000,"latitude":43.046411,"longitude":12.648925,"country_id":"IT","status_id":"1","laravel_through_key":"AD"},{"iso":"ary","glotto_id":"moro1292","iso1":null,"name":"Moroccan Arabic","autonym":"الدارجة Darija","family":null,"maps":"Algeria, Morocco, Tunisia and Western Sahara","level":"L","population":18800000,"latitude":32.5,"longitude":-7.5,"country_id":"MA","status_id":"3","laravel_through_key":"AD"},{"iso":"por","glotto_id":"port1283","iso1":"pt","name":"Portuguese","autonym":"português","family":null,"maps":"Portugal and Spain","level":"L","population":10000000,"latitude":42.03412,"longitude":-4.18815,"country_id":"PT","status_id":"1","laravel_through_key":"AD"},{"iso":"spa","glotto_id":"stan1288","iso1":"es","name":"Spanish","autonym":"Castilian","family":null,"maps":"Andorra and France","level":"L","population":28200000,"latitude":40.4414175,"longitude":-1.11788,"country_id":"ES","status_id":"1","laravel_through_key":"AD"},{"iso":"cat","glotto_id":"stan1289","iso1":"ca","name":"Catalan","autonym":"català\/valencià","family":null,"maps":"Andorra and France","level":"L","population":11200000,"latitude":41.89826,"longitude":3.393755,"country_id":"ES","status_id":"2","laravel_through_key":"AD"},{"iso":"fra","glotto_id":"stan1290","iso1":"fr","name":"French","autonym":"français","family":null,"maps":"Andorra and France","level":"L","population":53200000,"latitude":48,"longitude":2,"country_id":"FR","status_id":"1","laravel_through_key":"AD"},{"iso":"eng","glotto_id":"stan1293","iso1":"en","name":"English","autonym":null,"family":null,"maps":"Cook Islands","level":"L","population":null,"latitude":53,"longitude":-1,"country_id":"GB","status_id":null,"laravel_through_key":"AD"},{"iso":"deu","glotto_id":"stan1295","iso1":"de","name":"German","autonym":"Deutsch","family":null,"maps":"Belgium, Luxembourg and Netherlands","level":"L","population":75300000,"latitude":48.648954,"longitude":12.4676233,"country_id":"DE","status_id":"1","laravel_through_key":"AD"}],"wwl_current":null},{"id":"AE","iso_a3":"ARE","fips":"AE","wfb":1,"ethnologue":1,"continent":"AS","name":"United Arab Emirates","autonym":null,"introduction":"The Trucial States of the Persian Gulf coast granted the UK control of their defense and foreign affairs in 19th century treaties. In 1971, six of these states - Abu Dhabi, 'Ajman, Al Fujayrah, Ash Shariqah, Dubayy, and Umm al Qaywayn - merged to form the United Arab Emirates (UAE). They were joined in 1972 by Ra's al Khaymah. The UAE's per capita GDP is on par with those of leading West European nations. For more than three decades, oil and global finance drove the UAE's economy. However, in 2008-09, the confluence of falling oil prices, collapsing real estate prices, and the international banking crisis hit the UAE especially hard. The UAE essentially avoided the \\\"Arab Spring\\\" unrest seen elsewhere in the Middle East in 2010-11 and in an effort to stem potential unrest, the government announced a multi-year, $1.6-billion infrastructure investment plan for the poorer northern emirates and aggressively pursued advocates of political reform. The UAE in recent years has played a vital role in regional affairs. In addition to donating billions of dollars in economic aid to help stabilize Egypt, the UAE is a member of a US-led global coalition to defeat the Islamic State in Iraq and the Levant (ISIL) and a coalition partner in a Saudi-led military campaign to restore the government of Yemen.","overview":"The United Arab Emirates is an Arabian Peninsula nation settled mainly along the Persian (Arabian) Gulf. The country is a federation of 7 emirates. Abu Dhabi, the island capital, is home to Sheikh Zayed Grand Mosque, with crystal chandeliers and room for 40,000 worshipers. Dubai is the site of ultramodern Burj Khalifa tower, enormous shopping centers and extravagant entertainment attractions.","created_by":1,"updated_by":1,"created_at":"2019-05-02T21:30:22.000000Z","updated_at":"2020-12-18T19:09:45.000000Z","status":"published","population":9890402,"country_unique":1,"refugee_count":1247,"literacy":90,"languages_count":46,"languages":[{"iso":"grc","glotto_id":"anci1242","iso1":null,"name":"Ancient Greek (to 1453)","autonym":"ἙλληνικήHellēnikḗ","family":null,"maps":null,"level":"H","population":null,"latitude":39.8155,"longitude":21.91293,"country_id":"GR","status_id":"10","laravel_through_key":"AE"},{"iso":"ben","glotto_id":"beng1280","iso1":"bn","name":"Bengali","autonym":"বাংলা","family":null,"maps":"Bangladesh","level":"L","population":110000000,"latitude":24,"longitude":90,"country_id":"BD","status_id":"1","laravel_through_key":"AE"},{"iso":"dan","glotto_id":"dani1285","iso1":"da","name":"Danish","autonym":"dansk","family":null,"maps":"Denmark, Finland, Norway and Sweden","level":"L","population":5450000,"latitude":54.8655,"longitude":9.36284,"country_id":"DK","status_id":"1","laravel_through_key":"AE"},{"iso":"arz","glotto_id":"egyp1253","iso1":null,"name":"Egyptian Arabic","autonym":"اللهجه المصريه","family":null,"maps":"Egypt and Libya","level":"L","population":52500000,"latitude":31,"longitude":31,"country_id":"EG","status_id":"3","laravel_through_key":"AE"},{"iso":"gom","glotto_id":"goan1235","iso1":null,"name":"Goan Konkani","autonym":"कोंकणी","family":null,"maps":"India, Map 6","level":"L","population":3630000,"latitude":15.27325,"longitude":74.20979,"country_id":"IN","status_id":"5","laravel_through_key":"AE"},{"iso":"afb","glotto_id":"gulf1241","iso1":null,"name":"Gulf Arabic","autonym":"خليجي","family":null,"maps":"Iraq","level":"L","population":3599000,"latitude":30.17,"longitude":47.5,"country_id":"KW","status_id":"6a","laravel_through_key":"AE"},{"iso":"haz","glotto_id":"haza1239","iso1":null,"name":"Hazaragi","autonym":"هزارگی","family":null,"maps":"Afghanistan","level":"L","population":1770000,"latitude":33.3708,"longitude":64.5104767,"country_id":"AF","status_id":"5","laravel_through_key":"AE"},{"iso":"acw","glotto_id":"hija1235","iso1":null,"name":"Hijazi Arabic","autonym":"حجازي ","family":null,"maps":null,"level":"L","population":6000000,"latitude":22.834600000000002,"longitude":38.92371,"country_id":"SA","status_id":"6a","laravel_through_key":"AE"},{"iso":"hin","glotto_id":"hind1269","iso1":"hi","name":"Hindi","autonym":"हिंदी ","family":null,"maps":"India: Index Map","level":"L","population":180000000,"latitude":25,"longitude":77,"country_id":"IN","status_id":"1","laravel_through_key":"AE"},{"iso":"ita","glotto_id":"ital1282","iso1":"it","name":"Italian","autonym":"italiano","family":null,"maps":"Liechtenstein and Switzerland","level":"L","population":55000000,"latitude":43.046411,"longitude":12.648925,"country_id":"IT","status_id":"1","laravel_through_key":"AE"},{"iso":"mal","glotto_id":"mala1464","iso1":"ml","name":"Malayalam","autonym":"മലയാളം","family":null,"maps":"India: Index Map","level":"L","population":35400000,"latitude":9.592084,"longitude":76.7651361,"country_id":"IN","status_id":"2","laravel_through_key":"AE"},{"iso":"zlm","glotto_id":"mala1479","iso1":null,"name":"Malay (individual language)","autonym":" Indonesian Malaysian ","family":null,"maps":"Indonesia, Java and Bali","level":"L","population":10296000,"latitude":1.858561,"longitude":103.000487,"country_id":"MY","status_id":"3","laravel_through_key":"AE"},{"iso":"cmn","glotto_id":"mand1415","iso1":null,"name":"Mandarin Chinese","autonym":"官话; 官話; Guānhuà","family":null,"maps":"China","level":"L","population":0,"latitude":40.020884,"longitude":116.228026,"country_id":"CN","status_id":"1","laravel_through_key":"AE"},{"iso":"acm","glotto_id":"meso1252","iso1":null,"name":"Mesopotamian Arabic","autonym":"Iraqi Arabic","family":null,"maps":"Iraq","level":"L","population":11500000,"latitude":33.817765,"longitude":43.1094625,"country_id":"IQ","status_id":"3","laravel_through_key":"AE"},{"iso":"ell","glotto_id":"mode1248","iso1":"el","name":"Modern Greek (1453-)","autonym":"Νέα Ελληνικά","family":null,"maps":"Cyprus","level":"L","population":10700000,"latitude":42.3223856,"longitude":24.8699378,"country_id":"GR","status_id":"1","laravel_through_key":"AE"},{"iso":"npi","glotto_id":"nepa1254","iso1":null,"name":"Nepali (individual language)","autonym":" Nepalese","family":null,"maps":"Bhutan","level":"L","population":null,"latitude":null,"longitude":null,"country_id":"NP","status_id":"1","laravel_through_key":"AE"},{"iso":"pbu","glotto_id":"nort2646","iso1":null,"name":"Northern Pashto","autonym":"Yusufzai","family":null,"maps":"India, Map 1","level":"L","population":49529000,"latitude":34,"longitude":71.33,"country_id":"PK","status_id":"4","laravel_through_key":"AE"},{"iso":"apc","glotto_id":"nort3139","iso1":null,"name":"North Levantine Arabic","autonym":"اللهجة الشامي الشمال","family":null,"maps":"Jordan and Syria","level":"L","population":1000000,"latitude":34.1709325,"longitude":36.0468425,"country_id":"SY","status_id":"3","laravel_through_key":"AE"},{"iso":"hye","glotto_id":"nucl1235","iso1":"hy","name":"Armenian","autonym":"հայերէն\/հայերեն","family":null,"maps":"Azerbaijan","level":"L","population":3140000,"latitude":40,"longitude":45,"country_id":"AM","status_id":"1","laravel_through_key":"AE"},{"iso":"tur","glotto_id":"nucl1301","iso1":"tr","name":"Turkish","autonym":"Türkçe","family":null,"maps":"Cyprus","level":"L","population":46300000,"latitude":39.866667,"longitude":32.866667,"country_id":"TR","status_id":"1","laravel_through_key":"AE"},{"iso":"jpn","glotto_id":"nucl1643","iso1":"ja","name":"Japanese","autonym":"日本語","family":null,"maps":"Japan","level":"L","population":121000000,"latitude":35,"longitude":135,"country_id":"JP","status_id":"1","laravel_through_key":"AE"},{"iso":"acx","glotto_id":"oman1239","iso1":null,"name":"Omani Arabic","autonym":"اللهجة العمانية","family":null,"maps":"Oman","level":"L","population":720000,"latitude":23.25,"longitude":58.5,"country_id":"OM","status_id":"5","laravel_through_key":"AE"},{"iso":"pan","glotto_id":"panj1256","iso1":"pa","name":"Panjabi","autonym":"ਪੰਜਾਬੀ","family":null,"maps":"India: Index Map","level":"L","population":134000,"latitude":30.036762,"longitude":75.670166,"country_id":"IN","status_id":"2","laravel_through_key":"AE"},{"iso":"pol","glotto_id":"poli1260","iso1":"pl","name":"Polish","autonym":"polski","family":null,"maps":"Ukraine","level":"L","population":36600000,"latitude":51.843923,"longitude":18.625487,"country_id":"PL","status_id":"1","laravel_through_key":"AE"},{"iso":"ssh","glotto_id":"shih1239","iso1":null,"name":"Shihhi Arabic","autonym":null,"family":null,"maps":"Oman","level":"L","population":27000,"latitude":25.93902,"longitude":56.171125,"country_id":"AE","status_id":"6a","laravel_through_key":"AE"},{"iso":"sin","glotto_id":"sinh1246","iso1":"si","name":"Sinhala","autonym":"Sinhalese","family":null,"maps":"Sri Lanka","level":"L","population":15500000,"latitude":8,"longitude":81,"country_id":"LK","status_id":"1","laravel_through_key":"AE"},{"iso":"som","glotto_id":"soma1255","iso1":"so","name":"Somali","autonym":"Af Soomaali","family":null,"maps":"Djibouti, Eritrea and Ethiopia","level":"L","population":13871700,"latitude":4.778704,"longitude":45.152856,"country_id":"SO","status_id":"1","laravel_through_key":"AE"},{"iso":"sqt","glotto_id":"soqo1240","iso1":null,"name":"Soqotri","autonym":"méthel d-saqátri","family":null,"maps":"Yemen","level":"L","population":57000,"latitude":12.48924,"longitude":53.91675,"country_id":"YE","status_id":"8a","laravel_through_key":"AE"},{"iso":"bcc","glotto_id":"sout2642","iso1":null,"name":"Southern Balochi","autonym":"بلۏچی  Balòci","family":null,"maps":"Oman","level":"L","population":2770000,"latitude":25.1081025,"longitude":59.7353375,"country_id":"PK","status_id":"4","laravel_through_key":"AE"},{"iso":"pbt","glotto_id":"sout2649","iso1":null,"name":"Southern Pashto","autonym":null,"family":null,"maps":"Afghanistan","level":"L","population":1360000,"latitude":37.17,"longitude":68.25,"country_id":"AF","status_id":"1","laravel_through_key":"AE"},{"iso":"ajp","glotto_id":"sout3123","iso1":null,"name":"South Levantine Arabic","autonym":"اللهجة الشامية الجنوبية","family":null,"maps":"Jordan and Syria","level":"L","population":3500000,"latitude":31.560116,"longitude":38.083716,"country_id":"JO","status_id":"3","laravel_through_key":"AE"},{"iso":"eng","glotto_id":"stan1293","iso1":"en","name":"English","autonym":null,"family":null,"maps":"Cook Islands","level":"L","population":null,"latitude":53,"longitude":-1,"country_id":"GB","status_id":null,"laravel_through_key":"AE"},{"iso":"deu","glotto_id":"stan1295","iso1":"de","name":"German","autonym":"Deutsch","family":null,"maps":"Belgium, Luxembourg and Netherlands","level":"L","population":75300000,"latitude":48.648954,"longitude":12.4676233,"country_id":"DE","status_id":"1","laravel_through_key":"AE"},{"iso":"apd","glotto_id":"suda1236","iso1":null,"name":"Sudanese Arabic","autonym":null,"family":null,"maps":null,"level":"L","population":15000000,"latitude":17.8021125,"longitude":33.31793,"country_id":"SD","status_id":"3","laravel_through_key":"AE"},{"iso":"swh","glotto_id":"swah1253","iso1":null,"name":"Swahili (individual language)","autonym":"Kiswahili","family":null,"maps":"Kenya","level":"L","population":313200,"latitude":-8.2560525,"longitude":37.6240325,"country_id":"TZ","status_id":"1","laravel_through_key":"AE"},{"iso":"swe","glotto_id":"swed1254","iso1":"sv","name":"Swedish","autonym":"svenska","family":null,"maps":"Denmark, Finland, Norway and Sweden","level":"L","population":30000,"latitude":59.800634,"longitude":17.389526,"country_id":"SE","status_id":"1","laravel_through_key":"AE"},{"iso":"tgl","glotto_id":"taga1270","iso1":"tl","name":"Tagalog","autonym":"ᜏᜒᜃᜅ᜔ ᜆᜄᜎᜓᜄ᜔","family":null,"maps":"Northern Philippines","level":"L","population":21500000,"latitude":14.06,"longitude":121.74695,"country_id":"PH","status_id":"3","laravel_through_key":"AE"},{"iso":"acq","glotto_id":"taiz1242","iso1":null,"name":"Ta'izzi-Adeni Arabic","autonym":null,"family":null,"maps":"Yemen","level":"L","population":6760000,"latitude":13.65547,"longitude":45.64107,"country_id":"YE","status_id":"6a","laravel_through_key":"AE"},{"iso":"tam","glotto_id":"tami1289","iso1":"ta","name":"Tamil","autonym":"தமிழ்","family":null,"maps":"India: Index Map","level":"L","population":61500000,"latitude":10.520219,"longitude":78.825989,"country_id":"IN","status_id":"2","laravel_through_key":"AE"},{"iso":"tel","glotto_id":"telu1262","iso1":"te","name":"Telugu","autonym":"తెలుగు","family":null,"maps":"India: Index Map","level":"L","population":69600000,"latitude":16.452944,"longitude":78.702392,"country_id":"IN","status_id":"2","laravel_through_key":"AE"},{"iso":"tha","glotto_id":"thai1261","iso1":"th","name":"Thai","autonym":"Siamese","family":null,"maps":"Cambodia","level":"L","population":20200000,"latitude":14.191968,"longitude":100.671386,"country_id":"TH","status_id":"1","laravel_through_key":"AE"},{"iso":"urd","glotto_id":"urdu1245","iso1":"ur","name":"Urdu","autonym":"اُردُو","family":null,"maps":"Bangladesh","level":"L","population":10700000,"latitude":25,"longitude":67,"country_id":"PK","status_id":"1","laravel_through_key":"AE"},{"iso":"pes","glotto_id":"west2369","iso1":null,"name":"Iranian Persian","autonym":"Farsi\/Parsi","family":null,"maps":null,"level":"L","population":22000000,"latitude":28.6592829,"longitude":55.1586071,"country_id":"IR","status_id":"1","laravel_through_key":"AE"},{"iso":"pnb","glotto_id":"west2386","iso1":null,"name":"Western Panjabi","autonym":"ਪੰਜਾਬੀ","family":null,"maps":"India, Map 1","level":"L","population":60600000,"latitude":30.09484,"longitude":75.347425,"country_id":"PK","status_id":"5","laravel_through_key":"AE"},{"iso":"arb","glotto_id":null,"iso1":null,"name":"Standard Arabic","autonym":"عربي فصيح","family":null,"maps":null,"level":"L","population":206000000,"latitude":null,"longitude":null,"country_id":"SA","status_id":null,"laravel_through_key":"AE"},{"iso":"hyw","glotto_id":"homs1234","iso1":null,"name":"Western Armenian","autonym":null,"family":null,"maps":"Armenia","level":"L","population":null,"latitude":null,"longitude":null,"country_id":null,"status_id":null,"laravel_through_key":"AE"}],"wwl_current":null},{"id":"AF","iso_a3":"AFG","fips":"AF","wfb":1,"ethnologue":1,"continent":"AS","name":"Afghanistan","autonym":null,"introduction":"Ahmad Shah DURRANI unified the Pashtun tribes and founded Afghanistan in 1747. The country served as a buffer between the British and Russian Empires until it won independence from notional British control in 1919. A brief experiment in democracy ended in a 1973 coup and a 1978 communist countercoup. The Soviet Union invaded in 1979 to support the tottering Afghan communist regime, touching off a long and destructive war. The USSR withdrew in 1989 under relentless pressure by internationally supported anti-communist mujahidin rebels. A series of subsequent civil wars saw Kabul finally fall in 1996 to the Taliban, a hardline Pakistani-sponsored movement that emerged in 1994 to end the country's civil war and anarchy. Following the 11 September 2001 terrorist attacks, a US, Allied, and anti-Taliban Northern Alliance military action toppled the Taliban for sheltering Usama BIN LADIN. ++ A UN-sponsored Bonn Conference in 2001 established a process for political reconstruction that included the adoption of a new constitution, a presidential election in 2004, and National Assembly elections in 2005. In December 2004, Hamid KARZAI became the first democratically elected president of Afghanistan, and the National Assembly was inaugurated the following December. KARZAI was reelected in August 2009 for a second term. The 2014 presidential election was the country's first to include a runoff, which featured the top two vote-getters from the first round, Abdullah ABDULLAH and Ashraf GHANI. Throughout the summer of 2014, their campaigns disputed the results and traded accusations of fraud, leading to a US-led diplomatic intervention that included a full vote audit as well as political negotiations between the two camps. In September 2014, GHANI and ABDULLAH agreed to form the Government of National Unity, with GHANI inaugurated as president and ABDULLAH elevated to the newly-created position of chief executive officer. The day after the inauguration, the GHANI administration signed the US-Afghan Bilateral Security Agreement and NATO Status of Forces Agreement, which provide the legal basis for the post-2014 international military presence in Afghanistan. ++ Despite gains toward building a stable central government, the Taliban remains a serious challenge for the Afghan Government in almost every province. The Taliban still considers itself the rightful government of Afghanistan, and it remains a capable and confident insurgent force despite its last two spiritual leaders being killed; it continues to declare that it will pursue a peace deal with Kabul only after foreign military forces depart.","overview":"Afghanistan, officially the Islamic Republic of Afghanistan, is a landlocked country located within South Asia and Central Asia. Afghanistan is bordered by Pakistan in the south and east; Iran in the west; Turkmenistan, Uzbekistan, and Tajikistan in the north; and in the far northeast, China. Its territory covers 652,000 square kilometers (252,000 sq mi) and much of it is covered by the Hindu Kush mountain range, which experience very cold winters. The north consists of fertile plains, whilst the south-west consists of deserts where temperatures can get very hot in summers.","created_by":1,"updated_by":1,"created_at":"2019-05-02T21:30:22.000000Z","updated_at":"2020-12-18T19:09:41.000000Z","status":"published","population":38928346,"country_unique":1,"refugee_count":72228,"literacy":32,"languages_count":67,"languages":[{"iso":"afg","glotto_id":"afgh1239","iso1":null,"name":"Afghan Sign Language","autonym":"Jalalabad Sign Language","family":null,"maps":null,"level":"L","population":500,"latitude":null,"longitude":null,"country_id":"AF","status_id":"5","laravel_through_key":"AF"},{"iso":"aiq","glotto_id":"aima1241","iso1":null,"name":"Aimaq","autonym":"گویش ایماقی","family":null,"maps":"Afghanistan","level":"L","population":1000,"latitude":35.283045,"longitude":59.17558,"country_id":"AF","status_id":"6a","laravel_through_key":"AF"},{"iso":"ask","glotto_id":"ashk1246","iso1":null,"name":"Ashkun","autonym":"Saňu-vīri","family":null,"maps":"Afghanistan","level":"L","population":1200,"latitude":34.84277,"longitude":70.37453,"country_id":"AF","status_id":"6a","laravel_through_key":"AF"},{"iso":"rmn","glotto_id":"balk1252","iso1":null,"name":"Balkan Romani","autonym":null,"family":null,"maps":null,"level":"L","population":100000,"latitude":42.67,"longitude":21.17,"country_id":"RS","status_id":"5","laravel_through_key":"AF"},{"iso":"brh","glotto_id":"brah1256","iso1":null,"name":"Brahui","autonym":"براهوئی","family":null,"maps":"Afghanistan","level":"L","population":2000000,"latitude":28.5347033,"longitude":64.2990567,"country_id":"PK","status_id":"5","laravel_through_key":"AF"},{"iso":"ckb","glotto_id":"cent1972","iso1":null,"name":"Central Kurdish","autonym":"Central Kurdish","family":null,"maps":"Iraq","level":"L","population":3712000,"latitude":35.653865,"longitude":45.807735,"country_id":"IQ","status_id":"2","laravel_through_key":"AF"},{"iso":"prs","glotto_id":"dari1249","iso1":null,"name":"Dari","autonym":" Afghan Persian","family":null,"maps":"Afghanistan","level":"L","population":5600000,"latitude":31.040545,"longitude":67.359255,"country_id":"AF","status_id":"1","laravel_through_key":"AF"},{"iso":"rmt","glotto_id":"doma1258","iso1":null,"name":"Domari","autonym":"دٛومَرِي","family":null,"maps":"India, Map 4","level":"L","population":1340000,"latitude":32,"longitude":35,"country_id":"EG","status_id":"6a","laravel_through_key":"AF"},{"iso":"gwt","glotto_id":"gawa1247","iso1":null,"name":"Gawar-Bati","autonym":"Narsati","family":null,"maps":"Afghanistan","level":"L","population":8000,"latitude":35.19817,"longitude":71.542785,"country_id":"AF","status_id":"6b","laravel_through_key":"AF"},{"iso":"nli","glotto_id":"gran1245","iso1":null,"name":"Grangali","autonym":"Grangali","family":null,"maps":"Afghanistan","level":"L","population":5000,"latitude":34.64848,"longitude":70.73232,"country_id":"AF","status_id":"6a","laravel_through_key":"AF"},{"iso":"gju","glotto_id":"guja1253","iso1":null,"name":"Gujari","autonym":"Gojri","family":null,"maps":"India, Map 1","level":"L","population":1600000,"latitude":34.3767633,"longitude":73.1460733,"country_id":"IN","status_id":"4","laravel_through_key":"AF"},{"iso":"haz","glotto_id":"haza1239","iso1":null,"name":"Hazaragi","autonym":"هزارگی","family":null,"maps":"Afghanistan","level":"L","population":1770000,"latitude":33.3708,"longitude":64.5104767,"country_id":"AF","status_id":"5","laravel_through_key":"AF"},{"iso":"mvy","glotto_id":"indu1241","iso1":null,"name":"Indus Kohistani","autonym":"Maiyã","family":null,"maps":"Northern Pakistan","level":"L","population":220000,"latitude":35.33886,"longitude":73.0154,"country_id":"PK","status_id":"6a","laravel_through_key":"AF"},{"iso":"isk","glotto_id":"isk","iso1":null,"name":"Ishkashimi","autonym":"škošmi zəvůk","family":null,"maps":"Afghanistan","level":"L","population":null,"latitude":null,"longitude":null,"country_id":"AF","status_id":"6b","laravel_through_key":"AF"},{"iso":"ita","glotto_id":"ital1282","iso1":"it","name":"Italian","autonym":"italiano","family":null,"maps":"Liechtenstein and Switzerland","level":"L","population":55000000,"latitude":43.046411,"longitude":12.648925,"country_id":"IT","status_id":"1","laravel_through_key":"AF"},{"iso":"jat","glotto_id":"jaka1245","iso1":null,"name":"Jakati","autonym":null,"family":null,"maps":null,"level":"L","population":29300,"latitude":48.616,"longitude":37.3,"country_id":"AF","status_id":"6b","laravel_through_key":"AF"},{"iso":"gwc","glotto_id":"kala1373","iso1":null,"name":"Kalami","autonym":"Bashkarik","family":null,"maps":"Northern Pakistan","level":"L","population":40000,"latitude":35.53033,"longitude":72.57384,"country_id":"PK","status_id":"6b","laravel_through_key":"AF"},{"iso":"xvi","glotto_id":"kamv1242","iso1":null,"name":"Kamviri","autonym":"کامويري","family":null,"maps":"Afghanistan","level":"L","population":4000,"latitude":30,"longitude":70,"country_id":"AF","status_id":"6a","laravel_through_key":"AF"},{"iso":"kaa","glotto_id":"kara1467","iso1":null,"name":"Kara-Kalpak","autonym":" قاراقالپاق تىلى","family":null,"maps":"Turkmenistan and Uzbekistan","level":"L","population":407000,"latitude":39.98005,"longitude":63.32233,"country_id":"UZ","status_id":"5","laravel_through_key":"AF"},{"iso":"bsh","glotto_id":"kati1270","iso1":null,"name":"Kati","autonym":"Kati","family":null,"maps":"Afghanistan","level":"L","population":15000,"latitude":35.41447,"longitude":70.982585,"country_id":"AF","status_id":"6a","laravel_through_key":"AF"},{"iso":"kaz","glotto_id":"kaza1248","iso1":"kk","name":"Kazakh","autonym":"Kazak","family":null,"maps":"China","level":"L","population":5290000,"latitude":41.8728775,"longitude":65.7709088,"country_id":"KZ","status_id":"1","laravel_through_key":"AF"},{"iso":"khw","glotto_id":"khow1242","iso1":null,"name":"Khowar","autonym":"کهووار","family":null,"maps":"Northern Pakistan","level":"L","population":223000,"latitude":36,"longitude":72,"country_id":"PK","status_id":"3","laravel_through_key":"AF"},{"iso":"kir","glotto_id":"kirg1245","iso1":"ky","name":"Kirghiz","autonym":" قىرعىز تئلى","family":null,"maps":"Afghanistan","level":"L","population":2450000,"latitude":42,"longitude":74,"country_id":"KG","status_id":"1","laravel_through_key":"AF"},{"iso":"mhj","glotto_id":"mogh1245","iso1":null,"name":"Mogholi","autonym":null,"family":null,"maps":null,"level":"L","population":200,"latitude":34.25039,"longitude":62.28016,"country_id":"AF","status_id":"9","laravel_through_key":"AF"},{"iso":"mnj","glotto_id":"munj1244","iso1":null,"name":"Munji","autonym":"مونجى","family":null,"maps":"Afghanistan","level":"L","population":3770,"latitude":35.93207,"longitude":70.94044,"country_id":"AF","status_id":"6a","laravel_through_key":"AF"},{"iso":"pbu","glotto_id":"nort2646","iso1":null,"name":"Northern Pashto","autonym":"Yusufzai","family":null,"maps":"India, Map 1","level":"L","population":49529000,"latitude":34,"longitude":71.33,"country_id":"PK","status_id":"4","laravel_through_key":"AF"},{"iso":"glh","glotto_id":"nort2665","iso1":null,"name":"Northwest Pashai","autonym":null,"family":null,"maps":"Afghanistan","level":"L","population":null,"latitude":35.16781,"longitude":69.99361999999999,"country_id":"AF","status_id":"6a","laravel_through_key":"AF"},{"iso":"aee","glotto_id":"nort2666","iso1":null,"name":"Northeast Pashai","autonym":null,"family":null,"maps":"Afghanistan","level":"L","population":54400,"latitude":34.66002,"longitude":70.43166,"country_id":"AF","status_id":"6a","laravel_through_key":"AF"},{"iso":"azj","glotto_id":"nort2697","iso1":null,"name":"North Azerbaijani","autonym":" آذربایجان دیلی","family":null,"maps":"Azerbaijan","level":"L","population":4000000,"latitude":40.977675,"longitude":46.4736975,"country_id":"AZ","status_id":"1","laravel_through_key":"AF"},{"iso":"tur","glotto_id":"nucl1301","iso1":"tr","name":"Turkish","autonym":"Türkçe","family":null,"maps":"Cyprus","level":"L","population":46300000,"latitude":39.866667,"longitude":32.866667,"country_id":"TR","status_id":"1","laravel_through_key":"AF"},{"iso":"oru","glotto_id":"ormu1247","iso1":null,"name":"Ormuri","autonym":" Bargista","family":null,"maps":"Afghanistan","level":"L","population":1000,"latitude":32.68191,"longitude":69.34442,"country_id":"PK","status_id":"6a","laravel_through_key":"AF"},{"iso":"phv","glotto_id":"pahl1240","iso1":null,"name":"Pahlavani","autonym":null,"family":null,"maps":null,"level":"L","population":2100,"latitude":31.32675,"longitude":62.19785,"country_id":"AF","status_id":"9","laravel_through_key":"AF"},{"iso":"pan","glotto_id":"panj1256","iso1":"pa","name":"Panjabi","autonym":"ਪੰਜਾਬੀ","family":null,"maps":"India: Index Map","level":"L","population":134000,"latitude":30.036762,"longitude":75.670166,"country_id":"IN","status_id":"2","laravel_through_key":"AF"},{"iso":"prc","glotto_id":"para1299","iso1":null,"name":"Parachi","autonym":null,"family":null,"maps":"Afghanistan","level":"L","population":5000,"latitude":36.04323,"longitude":70.88047,"country_id":"AF","status_id":"7","laravel_through_key":"AF"},{"iso":"prd","glotto_id":"pars1252","iso1":null,"name":"Parsi-Dari","autonym":null,"family":null,"maps":null,"level":"L","population":350000,"latitude":32.994,"longitude":58.624,"country_id":"IR","status_id":"6a","laravel_through_key":"AF"},{"iso":"paq","glotto_id":"pary1242","iso1":null,"name":"Parya","autonym":"Парья","family":null,"maps":"Afghanistan","level":"L","population":3000,"latitude":36.49218,"longitude":69.25997,"country_id":"TJ","status_id":"6a","laravel_through_key":"AF"},{"iso":"prn","glotto_id":"pras1239","iso1":null,"name":"Prasuni","autonym":"Prasuni","family":null,"maps":null,"level":"L","population":null,"latitude":35.17314,"longitude":70.8004,"country_id":"AF","status_id":null,"laravel_through_key":"AF"},{"iso":"rus","glotto_id":"russ1263","iso1":"ru","name":"Russian","autonym":"русский язык","family":null,"maps":"China","level":"L","population":null,"latitude":53.919516,"longitude":72.392575,"country_id":"RU","status_id":"1","laravel_through_key":"AF"},{"iso":"sdg","glotto_id":"savi1242","iso1":null,"name":"Savi","autonym":null,"family":null,"maps":"Afghanistan","level":"L","population":3000,"latitude":35.30291,"longitude":71.55567,"country_id":"AF","status_id":"6a","laravel_through_key":"AF"},{"iso":"skr","glotto_id":"sera1259","iso1":null,"name":"Saraiki","autonym":"سرائیکی","family":null,"maps":"India, Map 1","level":"L","population":13800000,"latitude":29.553395,"longitude":71.905975,"country_id":"PK","status_id":"5","laravel_through_key":"AF"},{"iso":"sgy","glotto_id":"sgy","iso1":null,"name":"Sanglechi","autonym":"Dargi","family":null,"maps":"Afghanistan","level":"L","population":null,"latitude":null,"longitude":null,"country_id":"AF","status_id":"6a","laravel_through_key":"AF"},{"iso":"sgh","glotto_id":"shug1248","iso1":null,"name":"Shughni","autonym":"Shugnani-Rushani","family":null,"maps":"Afghanistan","level":"L","population":1500,"latitude":37.501785,"longitude":71.79251,"country_id":"TJ","status_id":"6a","laravel_through_key":"AF"},{"iso":"sts","glotto_id":"shum1235","iso1":null,"name":"Shumashti","autonym":null,"family":null,"maps":"Afghanistan","level":"L","population":1000,"latitude":34.47557,"longitude":70.56956,"country_id":"AF","status_id":"6a","laravel_through_key":"AF"},{"iso":"snd","glotto_id":"sind1272","iso1":"sd","name":"Sindhi","autonym":"سنڌي","family":null,"maps":"India: Index Map","level":"L","population":1200000,"latitude":26,"longitude":69,"country_id":"PK","status_id":"2","laravel_through_key":"AF"},{"iso":"pbt","glotto_id":"sout2649","iso1":null,"name":"Southern Pashto","autonym":null,"family":null,"maps":"Afghanistan","level":"L","population":1360000,"latitude":37.17,"longitude":68.25,"country_id":"AF","status_id":"1","laravel_through_key":"AF"},{"iso":"psh","glotto_id":"sout2671","iso1":null,"name":"Southwest Pashai","autonym":null,"family":null,"maps":"Afghanistan","level":"L","population":108000,"latitude":34.84777,"longitude":69.87341,"country_id":"AF","status_id":"6a","laravel_through_key":"AF"},{"iso":"psi","glotto_id":"sout2672","iso1":null,"name":"Southeast Pashai","autonym":null,"family":null,"maps":"Afghanistan","level":"L","population":54400,"latitude":34.43099,"longitude":70.30351,"country_id":"AF","status_id":"6a","laravel_through_key":"AF"},{"iso":"azb","glotto_id":"sout2697","iso1":null,"name":"South Azerbaijani","autonym":" آذربایجان دیلی","family":null,"maps":"Iraq","level":"L","population":1000,"latitude":36.513664,"longitude":48.43018,"country_id":"IR","status_id":"3","laravel_through_key":"AF"},{"iso":"uzs","glotto_id":"sout2699","iso1":null,"name":"Southern Uzbek","autonym":"اوزبیکچه","family":null,"maps":"Afghanistan","level":"L","population":1400000,"latitude":36.6098533,"longitude":60.6907467,"country_id":"AF","status_id":"3","laravel_through_key":"AF"},{"iso":"eng","glotto_id":"stan1293","iso1":"en","name":"English","autonym":null,"family":null,"maps":"Cook Islands","level":"L","population":null,"latitude":53,"longitude":-1,"country_id":"GB","status_id":null,"laravel_through_key":"AF"},{"iso":"deu","glotto_id":"stan1295","iso1":"de","name":"German","autonym":"Deutsch","family":null,"maps":"Belgium, Luxembourg and Netherlands","level":"L","population":75300000,"latitude":48.648954,"longitude":12.4676233,"country_id":"DE","status_id":"1","laravel_through_key":"AF"},{"iso":"tgk","glotto_id":"taji1245","iso1":"tg","name":"Tajik","autonym":"Тоҷикӣ (Tojikī)","family":null,"maps":"Kyrgyzstan and Tajikistan","level":"L","population":3340000,"latitude":38.82131,"longitude":68.55493,"country_id":"TJ","status_id":"1","laravel_through_key":"AF"},{"iso":"abh","glotto_id":"taji1248","iso1":null,"name":"Tajiki Arabic","autonym":null,"family":null,"maps":"Afghanistan","level":"L","population":1000,"latitude":37.217615,"longitude":67.32671,"country_id":"TJ","status_id":"6b","laravel_through_key":"AF"},{"iso":"tat","glotto_id":"tata1255","iso1":"tt","name":"Tatar","autonym":" تاتار تلی;","family":null,"maps":"China","level":"L","population":24668,"latitude":55,"longitude":50,"country_id":"RU","status_id":"2","laravel_through_key":"AF"},{"iso":"tra","glotto_id":"tira1253","iso1":null,"name":"Tirahi","autonym":null,"family":null,"maps":null,"level":"L","population":100,"latitude":34.17924,"longitude":69.59007,"country_id":"AF","status_id":"8b","laravel_through_key":"AF"},{"iso":"trm","glotto_id":"treg1243","iso1":null,"name":"Tregami","autonym":null,"family":null,"maps":"Afghanistan","level":"L","population":1000,"latitude":34.75482,"longitude":70.96173,"country_id":"AF","status_id":"6a","laravel_through_key":"AF"},{"iso":"tuk","glotto_id":"turk1304","iso1":"tk","name":"Turkmen","autonym":"تۆرکمن ديلی ","family":null,"maps":"Afghanistan","level":"L","population":3430000,"latitude":37.087194,"longitude":59.175736,"country_id":"TM","status_id":"1","laravel_through_key":"AF"},{"iso":"uig","glotto_id":"uigh1243","iso1":"ug","name":"Uighur","autonym":"Uighur","family":null,"maps":"China","level":"L","population":null,"latitude":43.67,"longitude":79.75,"country_id":"CN","status_id":"2","laravel_through_key":"AF"},{"iso":"urd","glotto_id":"urdu1245","iso1":"ur","name":"Urdu","autonym":"اُردُو","family":null,"maps":"Bangladesh","level":"L","population":10700000,"latitude":25,"longitude":67,"country_id":"PK","status_id":"1","laravel_through_key":"AF"},{"iso":"wbk","glotto_id":"waig1243","iso1":null,"name":"Waigali","autonym":"Kalaṣa-alâ","family":null,"maps":"Afghanistan","level":"L","population":1500,"latitude":35.03578,"longitude":70.97609,"country_id":"AF","status_id":"6a","laravel_through_key":"AF"},{"iso":"wbl","glotto_id":"wakh1245","iso1":null,"name":"Wakhi","autonym":"x̌ik zik \/ Х̌ ик зик","family":null,"maps":"Afghanistan","level":"L","population":2000,"latitude":37.1768425,"longitude":73.9776975,"country_id":"AF","status_id":"6a","laravel_through_key":"AF"},{"iso":"wrd","glotto_id":"ward1243","iso1":null,"name":"Warduji","autonym":"Dargi","family":null,"maps":"Afghanistan","level":"L","population":5000,"latitude":36.60835,"longitude":71.14749,"country_id":"AF","status_id":"6a","laravel_through_key":"AF"},{"iso":"bgn","glotto_id":"west2368","iso1":null,"name":"Western Balochi","autonym":"بلۏچی  Balòci","family":null,"maps":"Afghanistan","level":"L","population":1120000,"latitude":37.83,"longitude":62.17,"country_id":"PK","status_id":"4","laravel_through_key":"AF"},{"iso":"pes","glotto_id":"west2369","iso1":null,"name":"Iranian Persian","autonym":"Farsi\/Parsi","family":null,"maps":null,"level":"L","population":22000000,"latitude":28.6592829,"longitude":55.1586071,"country_id":"IR","status_id":"1","laravel_through_key":"AF"},{"iso":"pnb","glotto_id":"west2386","iso1":null,"name":"Western Panjabi","autonym":"ਪੰਜਾਬੀ","family":null,"maps":"India, Map 1","level":"L","population":60600000,"latitude":30.09484,"longitude":75.347425,"country_id":"PK","status_id":"5","laravel_through_key":"AF"},{"iso":"wsv","glotto_id":"wota1240","iso1":null,"name":"Wotapuri-Katarqalai","autonym":null,"family":null,"maps":null,"level":"E","population":0,"latitude":34.70327,"longitude":70.8565,"country_id":"AF","status_id":"10","laravel_through_key":"AF"},{"iso":"uig","glotto_id":"uigh1243","iso1":"ug","name":"Uighur","autonym":"Uighur","family":null,"maps":"China","level":"L","population":null,"latitude":43.67,"longitude":79.75,"country_id":"CN","status_id":"2","laravel_through_key":"AF"}],"wwl_current":null},{"id":"AG","iso_a3":"ATG","fips":"AC","wfb":1,"ethnologue":1,"continent":"NA","name":"Antigua and Barbuda","autonym":null,"introduction":"The Siboney were the first people to inhabit the islands of Antigua and Barbuda in 2400 B.C., but Arawak Indians populated the islands when COLUMBUS landed on his second voyage in 1493. Early Spanish and French settlements were succeeded by an English colony in 1667. Slavery, established to run the sugar plantations on Antigua, was abolished in 1834. The islands became an independent state within the British Commonwealth of Nations in 1981.","overview":"Antigua and Barbuda is an independent Commonwealth country comprising its 2 namesake islands and several smaller ones. Positioned where the Atlantic and Caribbean meet, it's known for reef-lined beaches, rainforests and resorts. Its English Harbour is a yachting hub and the site of historic Nelson's Dockyard. In the capital, St. John's, the national museum displays indigenous and colonial artefacts.","created_by":1,"updated_by":1,"created_at":"2019-05-02T21:30:22.000000Z","updated_at":"2020-12-18T19:10:12.000000Z","status":"published","population":97929,"country_unique":1,"refugee_count":0,"literacy":97,"languages_count":4,"languages":[{"iso":"aig","glotto_id":"anti1245","iso1":null,"name":"Antigua and Barbuda Creole English","autonym":"Antiguan Creole","family":null,"maps":"Creole Languages of the Eastern Caribbean","level":"L","population":125270,"latitude":15.553139999999999,"longitude":-61.3156,"country_id":"AG","status_id":"6a","laravel_through_key":"AG"},{"iso":"apc","glotto_id":"nort3139","iso1":null,"name":"North Levantine Arabic","autonym":"اللهجة الشامي الشمال","family":null,"maps":"Jordan and Syria","level":"L","population":1000000,"latitude":34.1709325,"longitude":36.0468425,"country_id":"SY","status_id":"3","laravel_through_key":"AG"},{"iso":"por","glotto_id":"port1283","iso1":"pt","name":"Portuguese","autonym":"português","family":null,"maps":"Portugal and Spain","level":"L","population":10000000,"latitude":42.03412,"longitude":-4.18815,"country_id":"PT","status_id":"1","laravel_through_key":"AG"},{"iso":"eng","glotto_id":"stan1293","iso1":"en","name":"English","autonym":null,"family":null,"maps":"Cook Islands","level":"L","population":null,"latitude":53,"longitude":-1,"country_id":"GB","status_id":null,"laravel_through_key":"AG"}],"wwl_current":null},{"id":"AI","iso_a3":"AIA","fips":"AV","wfb":1,"ethnologue":1,"continent":"NA","name":"Anguilla","autonym":null,"introduction":"Colonized by English settlers from Saint Kitts in 1650, Anguilla was administered by Great Britain until the early 19th century, when the island - against the wishes of the inhabitants - was incorporated into a single British dependency along with Saint Kitts and Nevis. Several attempts at separation failed. In 1971, two years after a revolt, Anguilla was finally allowed to secede; this arrangement was formally recognized in 1980, with Anguilla becoming a separate British dependency.","overview":"Anguilla, a British Overseas Territory in the Eastern Caribbean, comprises a small main island and several offshore islets. Its beaches range from long sandy stretches like Rendezvous Bay, overlooking neighboring Saint Martin island, to secluded coves reached by boat, such as at Little Bay. Protected areas include Big Spring Cave, known for its prehistoric petroglyphs, and East End Pond, a wildlife conservation site.","created_by":1,"updated_by":1,"created_at":"2019-05-02T21:30:22.000000Z","updated_at":"2020-12-16T20:33:52.000000Z","status":"published","population":15003,"country_unique":0,"refugee_count":0,"literacy":95,"languages_count":3,"languages":[{"iso":"aig","glotto_id":"anti1245","iso1":null,"name":"Antigua and Barbuda Creole English","autonym":"Antiguan Creole","family":null,"maps":"Creole Languages of the Eastern Caribbean","level":"L","population":125270,"latitude":15.553139999999999,"longitude":-61.3156,"country_id":"AG","status_id":"6a","laravel_through_key":"AI"},{"iso":"hin","glotto_id":"hind1269","iso1":"hi","name":"Hindi","autonym":"हिंदी ","family":null,"maps":"India: Index Map","level":"L","population":180000000,"latitude":25,"longitude":77,"country_id":"IN","status_id":"1","laravel_through_key":"AI"},{"iso":"eng","glotto_id":"stan1293","iso1":"en","name":"English","autonym":null,"family":null,"maps":"Cook Islands","level":"L","population":null,"latitude":53,"longitude":-1,"country_id":"GB","status_id":null,"laravel_through_key":"AI"}],"wwl_current":null},{"id":"AL","iso_a3":"ALB","fips":"AL","wfb":1,"ethnologue":1,"continent":"EU","name":"Albania","autonym":null,"introduction":"Albania declared its independence from the Ottoman Empire in 1912, but was conquered by Italy in 1939 and occupied by Germany in 1943. Communist partisans took over the country in 1944. Albania allied itself first with the USSR (until 1960), and then with China (to 1978). In the early 1990s, Albania ended 46 years of xenophobic communist rule and established a multiparty democracy. The transition has proven challenging as successive governments have tried to deal with high unemployment, widespread corruption, dilapidated infrastructure, powerful organized crime networks, and combative political opponents. ++ Albania has made progress in its democratic development since first holding multiparty elections in 1991, but deficiencies remain. Most of Albania's post-communist elections were marred by claims of electoral fraud; however, international observers judged elections to be largely free and fair since the restoration of political stability following the collapse of pyramid schemes in 1997. Albania joined NATO in April 2009 and in June 2014 became a candidate for EU accession. Albania in November 2016 received a European Commission recommendation to open EU accession negotiations conditioned upon implementation of a judicial reform package passed the same year. Although Albania's economy continues to grow, it has slowed, and the country is still one of the poorest in Europe. A large informal economy and an inadequate energy and transportation infrastructure remain obstacles.","overview":"Albania, on Southeastern Europe’s Balkan Peninsula, is a small country with Adriatic and Ionian coastlines and an interior crossed by the Albanian Alps. The country has many castles and archaeological sites. Capital Tirana centers on sprawling Skanderbeg Square, site of the National History Museum, with exhibits spanning antiquity to post-communism, and frescoed Et’hem Bey Mosque.","created_by":1,"updated_by":1,"created_at":"2019-05-02T21:30:22.000000Z","updated_at":"2020-12-18T19:10:04.000000Z","status":"published","population":2877797,"country_unique":1,"refugee_count":128,"literacy":97,"languages_count":12,"languages":[{"iso":"sqk","glotto_id":"alba1271","iso1":null,"name":"Albanian Sign Language","autonym":"AlbSL","family":null,"maps":null,"level":"L","population":null,"latitude":null,"longitude":null,"country_id":"AL","status_id":"6a","laravel_through_key":"AL"},{"iso":"rup","glotto_id":"arom1237","iso1":null,"name":"Macedo-Romanian","autonym":"rrãmãneshti","family":null,"maps":"Greece and The Former Yugoslav Republic of Macedonia","level":"L","population":123300,"latitude":42.0645933,"longitude":22.6463717,"country_id":"GR","status_id":"6b","laravel_through_key":"AL"},{"iso":"aln","glotto_id":"gheg1238","iso1":null,"name":"Gheg Albanian","autonym":"gegnisht","family":null,"maps":"Greece and The Former Yugoslav Republic of Macedonia","level":"L","population":1630000,"latitude":42.3169925,"longitude":21.3836825,"country_id":"AL","status_id":"2","laravel_through_key":"AL"},{"iso":"ita","glotto_id":"ital1282","iso1":"it","name":"Italian","autonym":"italiano","family":null,"maps":"Liechtenstein and Switzerland","level":"L","population":55000000,"latitude":43.046411,"longitude":12.648925,"country_id":"IT","status_id":"1","laravel_through_key":"AL"},{"iso":"mkd","glotto_id":"mace1250","iso1":"mk","name":"Macedonian","autonym":"македонскиmakedonski","family":null,"maps":"Greece and The Former Yugoslav Republic of Macedonia","level":"L","population":1390000,"latitude":41.595727,"longitude":21.793212,"country_id":"MK","status_id":"1","laravel_through_key":"AL"},{"iso":"ell","glotto_id":"mode1248","iso1":"el","name":"Modern Greek (1453-)","autonym":"Νέα Ελληνικά","family":null,"maps":"Cyprus","level":"L","population":10700000,"latitude":42.3223856,"longitude":24.8699378,"country_id":"GR","status_id":"1","laravel_through_key":"AL"},{"iso":"tur","glotto_id":"nucl1301","iso1":"tr","name":"Turkish","autonym":"Türkçe","family":null,"maps":"Cyprus","level":"L","population":46300000,"latitude":39.866667,"longitude":32.866667,"country_id":"TR","status_id":"1","laravel_through_key":"AL"},{"iso":"srp","glotto_id":"serb1264","iso1":"sr","name":"Serbian","autonym":"српски \/ srpski","family":null,"maps":"Greece and The Former Yugoslav Republic of Macedonia","level":"L","population":4500000,"latitude":44.3238443,"longitude":21.9191843,"country_id":"RS","status_id":"1","laravel_through_key":"AL"},{"iso":"sqi","glotto_id":"sqi","iso1":"sq","name":"Albanian","autonym":null,"family":null,"maps":null,"level":"L","population":null,"latitude":null,"longitude":null,"country_id":null,"status_id":null,"laravel_through_key":"AL"},{"iso":"eng","glotto_id":"stan1293","iso1":"en","name":"English","autonym":null,"family":null,"maps":"Cook Islands","level":"L","population":null,"latitude":53,"longitude":-1,"country_id":"GB","status_id":null,"laravel_through_key":"AL"},{"iso":"als","glotto_id":"tosk1239","iso1":null,"name":"Tosk Albanian","autonym":"toskë","family":null,"maps":"Greece and The Former Yugoslav Republic of Macedonia","level":"L","population":2900000,"latitude":41,"longitude":20,"country_id":"AL","status_id":"1","laravel_through_key":"AL"},{"iso":"rmy","glotto_id":"vlax1238","iso1":null,"name":"Vlax Romani","autonym":"řomani čhib","family":null,"maps":null,"level":"L","population":11000000,"latitude":46.8191237,"longitude":14.8450926,"country_id":"RO","status_id":"6b","laravel_through_key":"AL"}],"wwl_current":null},{"id":"AM","iso_a3":"ARM","fips":"AM","wfb":1,"ethnologue":1,"continent":"AS","name":"Armenia","autonym":null,"introduction":"Armenia prides itself on being the first nation to formally adopt Christianity (early 4th century). Despite periods of autonomy, over the centuries Armenia came under the sway of various empires including the Roman, Byzantine, Arab, Persian, and Ottoman. During World War I in the western portion of Armenia, the Ottoman Empire instituted a policy of forced resettlement coupled with other harsh practices that resulted in at least 1 million Armenian deaths. The eastern area of Armenia was ceded by the Ottomans to Russia in 1828; this portion declared its independence in 1918, but was conquered by the Soviet Red Army in 1920. ++ Armenian leaders remain preoccupied by the long conflict with Azerbaijan over Nagorno-Karabakh, a primarily Armenian-populated region, assigned to Soviet Azerbaijan in the 1920s by Moscow. Armenia and Azerbaijan began fighting over the area in 1988; the struggle escalated after both countries attained independence from the Soviet Union in 1991. By May 1994, when a cease-fire took hold, ethnic Armenian forces held not only Nagorno-Karabakh but also seven surrounding regions, approximately 14 percent of Azerbaijan’s territory. The economies of both sides have been hurt by their inability to make substantial progress toward a peaceful resolution. ++ Turkey closed the common border with Armenia in 1993 in support of Azerbaijan in its conflict with Armenia over control of Nagorno-Karabakh and surrounding areas, further hampering Armenian economic growth. In 2009, senior Armenian leaders began pursuing rapprochement with Turkey, aiming to secure an opening of the border, but Turkey has not yet ratified the Protocols normalizing relations between the two countries. In January 2015, Armenia joined Russia, Belarus, and Kazakhstan as a member of the Eurasian Economic Union.","overview":"Armenia is a nation, and former Soviet republic, in the mountainous Caucasus region between Asia and Europe. Among the earliest Christian civilizations, it’s defined by religious sites including the Greco-Roman Temple of Garni and 4th-century Etchmiadzin Cathedral, headquarters of the Armenian Church. Khor Virap Monastery is a pilgrimage site near Mount Ararat, a dormant volcano just across the border in Turkey.","created_by":1,"updated_by":1,"created_at":"2019-05-02T21:30:22.000000Z","updated_at":"2020-12-18T19:10:01.000000Z","status":"published","population":2963243,"country_unique":1,"refugee_count":17985,"literacy":99,"languages_count":18,"languages":[{"iso":"aen","glotto_id":"arme1259","iso1":null,"name":"Armenian Sign Language","autonym":null,"family":null,"maps":null,"level":"L","population":null,"latitude":40.10023,"longitude":44.47668,"country_id":"AM","status_id":"6a","laravel_through_key":"AM"},{"iso":"aii","glotto_id":"assy1241","iso1":null,"name":"Assyrian Neo-Aramaic","autonym":"Sūreṯ","family":null,"maps":"Iraq","level":"L","population":219330,"latitude":36.75,"longitude":43,"country_id":"IQ","status_id":"6b","laravel_through_key":"AM"},{"iso":"bel","glotto_id":"bela1254","iso1":"be","name":"Belarusian","autonym":"беларуская мова biełaruskaja mova","family":null,"maps":null,"level":"L","population":6720000,"latitude":53.230655,"longitude":25.603835,"country_id":"BY","status_id":"1","laravel_through_key":"AM"},{"iso":"myv","glotto_id":"erzy1239","iso1":null,"name":"Erzya","autonym":"erzänj kelj","family":null,"maps":"Western Russia","level":"L","population":614000,"latitude":52.85479,"longitude":45.3901,"country_id":"RU","status_id":"5","laravel_through_key":"AM"},{"iso":"krc","glotto_id":"kara1465","iso1":null,"name":"Karachay-Balkar","autonym":"къарачай-малкъар тилтаулу тил","family":null,"maps":"Western Russia","level":"L","population":108000,"latitude":43.56504,"longitude":42.26059,"country_id":"RU","status_id":"4","laravel_through_key":"AM"},{"iso":"rmi","glotto_id":"loma1235","iso1":null,"name":"Lomavren","autonym":null,"family":null,"maps":null,"level":"L","population":null,"latitude":40,"longitude":45,"country_id":"AM","status_id":"6b","laravel_through_key":"AM"},{"iso":"ell","glotto_id":"mode1248","iso1":"el","name":"Modern Greek (1453-)","autonym":"Νέα Ελληνικά","family":null,"maps":"Cyprus","level":"L","population":10700000,"latitude":42.3223856,"longitude":24.8699378,"country_id":"GR","status_id":"1","laravel_through_key":"AM"},{"iso":"kmr","glotto_id":"nort2641","iso1":null,"name":"Northern Kurdish","autonym":"Northern Kurdish","family":null,"maps":"Azerbaijan","level":"L","population":3950000,"latitude":37,"longitude":43,"country_id":"TR","status_id":"3","laravel_through_key":"AM"},{"iso":"azj","glotto_id":"nort2697","iso1":null,"name":"North Azerbaijani","autonym":" آذربایجان دیلی","family":null,"maps":"Azerbaijan","level":"L","population":4000000,"latitude":40.977675,"longitude":46.4736975,"country_id":"AZ","status_id":"1","laravel_through_key":"AM"},{"iso":"hye","glotto_id":"nucl1235","iso1":"hy","name":"Armenian","autonym":"հայերէն\/հայերեն","family":null,"maps":"Azerbaijan","level":"L","population":3140000,"latitude":40,"longitude":45,"country_id":"AM","status_id":"1","laravel_through_key":"AM"},{"iso":"kat","glotto_id":"nucl1302","iso1":"ka","name":"Georgian","autonym":"Kartuli","family":null,"maps":"Azerbaijan","level":"L","population":3900000,"latitude":39.3704525,"longitude":45.80661,"country_id":"GE","status_id":"1","laravel_through_key":"AM"},{"iso":"ron","glotto_id":"roma1327","iso1":"ro","name":"Romanian","autonym":"Daco-Romanian","family":null,"maps":"Ukraine","level":"L","population":19700000,"latitude":46.391292,"longitude":24.22557,"country_id":"RO","status_id":"1","laravel_through_key":"AM"},{"iso":"rus","glotto_id":"russ1263","iso1":"ru","name":"Russian","autonym":"русский язык","family":null,"maps":"China","level":"L","population":null,"latitude":53.919516,"longitude":72.392575,"country_id":"RU","status_id":"1","laravel_through_key":"AM"},{"iso":"tat","glotto_id":"tata1255","iso1":"tt","name":"Tatar","autonym":" تاتار تلی;","family":null,"maps":"China","level":"L","population":24668,"latitude":55,"longitude":50,"country_id":"RU","status_id":"2","laravel_through_key":"AM"},{"iso":"udi","glotto_id":"udii1243","iso1":null,"name":"Udi","autonym":"удин муз","family":null,"maps":"Azerbaijan","level":"L","population":4200,"latitude":40.9,"longitude":47.7236,"country_id":"AZ","status_id":"5","laravel_through_key":"AM"},{"iso":"ukr","glotto_id":"ukra1253","iso1":"uk","name":"Ukrainian","autonym":"українська моваukrayins'ka mova","family":null,"maps":"Ukraine","level":"L","population":31100000,"latitude":48.175842,"longitude":24.395786,"country_id":"UA","status_id":"1","laravel_through_key":"AM"},{"iso":"hyw","glotto_id":"homs1234","iso1":null,"name":"Western Armenian","autonym":null,"family":null,"maps":"Armenia","level":"L","population":null,"latitude":null,"longitude":null,"country_id":null,"status_id":null,"laravel_through_key":"AM"},{"iso":"hyw","glotto_id":"homs1234","iso1":null,"name":"Western Armenian","autonym":null,"family":null,"maps":"Armenia","level":"L","population":null,"latitude":null,"longitude":null,"country_id":null,"status_id":null,"laravel_through_key":"AM"}],"wwl_current":null},{"id":"AO","iso_a3":"AGO","fips":"AO","wfb":1,"ethnologue":1,"continent":"AF","name":"Angola","autonym":null,"introduction":"Angola is still rebuilding its country since the end of a 27-year civil war in 2002. Fighting between the Popular Movement for the Liberation of Angola (MPLA), led by Jose Eduardo DOS SANTOS, and the National Union for the Total Independence of Angola (UNITA), led by Jonas SAVIMBI, followed independence from Portugal in 1975. Peace seemed imminent in 1992 when Angola held national elections, but fighting picked up again in 1993. Up to 1.5 million lives may have been lost - and 4 million people displaced - during the more than a quarter century of fighting. SAVIMBI's death in 2002 ended UNITA's insurgency and cemented the MPLA's hold on power. President DOS SANTOS pushed through a new constitution in 2010 and elections held in 2012 saw him installed as president. Angola assumed a nonpermanent seat on the UN Security Council for the 2015-16 term.","overview":"Angola is a Southern African nation whose varied terrain encompasses tropical Atlantic beaches, a labyrinthine system of rivers and Sub-Saharan desert that extends across the border into Namibia. The country's colonial history is reflected in its Portuguese-influenced cuisine and its landmarks including Fortaleza de São Miguel, a fortress built by the Portuguese in 1576 to defend the capital, Luanda.","created_by":1,"updated_by":1,"created_at":"2019-05-02T21:30:22.000000Z","updated_at":"2020-12-18T19:09:42.000000Z","status":"published","population":32866272,"country_unique":1,"refugee_count":25802,"literacy":70,"languages_count":59,"languages":[{"iso":"afr","glotto_id":"afri1274","iso1":"af","name":"Afrikaans","autonym":null,"family":null,"maps":"Botswana","level":"L","population":4740000,"latitude":-22,"longitude":30,"country_id":"ZA","status_id":"1","laravel_through_key":"AO"},{"iso":"blv","glotto_id":"bolo1261","iso1":null,"name":"Kibala","autonym":"Ngoya","family":null,"maps":"Angola","level":"L","population":2630,"latitude":-10.35106,"longitude":15.0867,"country_id":"AO","status_id":"6a","laravel_through_key":"AO"},{"iso":"cjk","glotto_id":"chok1245","iso1":null,"name":"Chokwe","autonym":"Ucôkwe (Wuchokwe)","family":null,"maps":"Angola","level":"L","population":1009780,"latitude":-9.6608233,"longitude":21.3991833,"country_id":"AO","status_id":"3","laravel_through_key":"AO"},{"iso":"diu","glotto_id":"diri1252","iso1":null,"name":"Diriku","autonym":"Rumanyo","family":null,"maps":"Angola","level":"L","population":10200,"latitude":-18.16808,"longitude":20.66778,"country_id":"NA","status_id":"4","laravel_through_key":"AO"},{"iso":"hgm","glotto_id":"haio1238","iso1":null,"name":"Haiǁom","autonym":"Haiǁom–ǂĀkhoe","family":null,"maps":"Namibia","level":"L","population":18400,"latitude":-19.76371,"longitude":17.02985,"country_id":"NA","status_id":"6a","laravel_through_key":"AO"},{"iso":"her","glotto_id":"here1253","iso1":"hz","name":"Herero","autonym":"Otjiherero","family":null,"maps":"Botswana","level":"L","population":206000,"latitude":-21.02312,"longitude":20.565535,"country_id":"NA","status_id":"5","laravel_through_key":"AO"},{"iso":"hol","glotto_id":"holu1245","iso1":null,"name":"Holu","autonym":"Kiholo","family":null,"maps":"Angola","level":"L","population":23100,"latitude":-8.147545000000001,"longitude":17.572,"country_id":"AO","status_id":"6a","laravel_through_key":"AO"},{"iso":"ktz","glotto_id":"juho1239","iso1":null,"name":"Juǀʼhoan","autonym":"South(eastern) ǃXun\/Ju","family":null,"maps":"Botswana","level":"L","population":33600,"latitude":-19.687995,"longitude":20.767285,"country_id":"NA","status_id":"5","laravel_through_key":"AO"},{"iso":"kea","glotto_id":"kabu1256","iso1":null,"name":"Kabuverdianu","autonym":"Kriolu","family":null,"maps":null,"level":"L","population":138842,"latitude":15.05863,"longitude":-23.61476,"country_id":"CV","status_id":"4","laravel_through_key":"AO"},{"iso":"kmb","glotto_id":"kimb1241","iso1":null,"name":"Kimbundu","autonym":"North Mbundu","family":null,"maps":"Angola","level":"L","population":3000000,"latitude":-8.97835,"longitude":14.88926,"country_id":"AO","status_id":"3","laravel_through_key":"AO"},{"iso":"kng","glotto_id":"koon1244","iso1":null,"name":"Koongo","autonym":"Kikongo","family":null,"maps":"Angola","level":"L","population":3000000,"latitude":-5.57722,"longitude":14.4770567,"country_id":"CD","status_id":"2","laravel_through_key":"AO"},{"iso":"kua","glotto_id":"kuan1247","iso1":"kj","name":"Kuanyama","autonym":"Oshikwanyama","family":null,"maps":"Angola","level":"L","population":421000,"latitude":-17.71755,"longitude":16.57999,"country_id":"AO","status_id":"3","laravel_through_key":"AO"},{"iso":"knw","glotto_id":"kung1261","iso1":null,"name":"Kung-Ekoka","autonym":"Western ǃXuun","family":null,"maps":"Namibia","level":"L","population":1760,"latitude":-21.92,"longitude":18,"country_id":"NA","status_id":"6a","laravel_through_key":"AO"},{"iso":"kwz","glotto_id":"kwad1244","iso1":null,"name":"Kwadi","autonym":"ǃKwaǀtse","family":null,"maps":null,"level":"E","population":0,"latitude":-15.87448,"longitude":12.11474,"country_id":"AO","status_id":"10","laravel_through_key":"AO"},{"iso":"kwn","glotto_id":"kwan1273","iso1":null,"name":"Kwangali","autonym":"Rukwangali","family":null,"maps":"Angola","level":"L","population":2000,"latitude":-17.90257,"longitude":19.25602,"country_id":"NA","status_id":"4","laravel_through_key":"AO"},{"iso":"xuu","glotto_id":"kxoe1243","iso1":null,"name":"Kxoe","autonym":"Kxoe","family":null,"maps":"Namibia","level":"L","population":3600,"latitude":-16.59051,"longitude":22.599835,"country_id":"NA","status_id":"5","laravel_through_key":"AO"},{"iso":"ldi","glotto_id":"laar1238","iso1":null,"name":"Laari","autonym":"Kikongo","family":null,"maps":"Congo","level":"L","population":90600,"latitude":-6.56,"longitude":14.756,"country_id":"CG","status_id":"5","laravel_through_key":"AO"},{"iso":"lin","glotto_id":"ling1263","iso1":"ln","name":"Lingala","autonym":"Ngala","family":null,"maps":"Southern Democratic Republic of Congo","level":"L","population":2040000,"latitude":1.403245,"longitude":19.782905,"country_id":"CD","status_id":"2","laravel_through_key":"AO"},{"iso":"loz","glotto_id":"lozi1239","iso1":null,"name":"Lozi","autonym":"siLozi \/ Rozi","family":null,"maps":"Botswana","level":"L","population":610000,"latitude":-17.7051675,"longitude":24.7397775,"country_id":"ZM","status_id":"4","laravel_through_key":"AO"},{"iso":"lua","glotto_id":"luba1249","iso1":null,"name":"Luba-Lulua","autonym":"Ciluba","family":null,"maps":"Southern Democratic Republic of Congo","level":"L","population":6300000,"latitude":-5.72717,"longitude":22.4422,"country_id":"CD","status_id":"2","laravel_through_key":"AO"},{"iso":"lch","glotto_id":"luch1239","iso1":null,"name":"Luchazi","autonym":"Ngangela","family":null,"maps":"Angola","level":"L","population":155000,"latitude":-14.064795,"longitude":22.24366,"country_id":"AO","status_id":"5","laravel_through_key":"AO"},{"iso":"lum","glotto_id":"luim1238","iso1":null,"name":"Luimbi","autonym":null,"family":null,"maps":"Angola","level":"L","population":43900,"latitude":-11.22208,"longitude":17.53848,"country_id":"AO","status_id":"6a","laravel_through_key":"AO"},{"iso":"lun","glotto_id":"lund1266","iso1":null,"name":"Lunda","autonym":"Chilunda","family":null,"maps":"Angola","level":"L","population":450000,"latitude":-11.179276699999999,"longitude":23.8661933,"country_id":"ZM","status_id":"4","laravel_through_key":"AO"},{"iso":"lue","glotto_id":"luva1239","iso1":null,"name":"Luvale","autonym":null,"family":null,"maps":"Angola","level":"L","population":168000,"latitude":-13.538245,"longitude":22.292385,"country_id":"ZM","status_id":"2","laravel_through_key":"AO"},{"iso":"lwa","glotto_id":"lwal1238","iso1":null,"name":"Lwalu","autonym":"Lwalwa","family":null,"maps":"Southern Democratic Republic of Congo","level":"L","population":21000,"latitude":-7.16388,"longitude":22.10971,"country_id":"CD","status_id":"6a","laravel_through_key":"AO"},{"iso":"cmn","glotto_id":"mand1415","iso1":null,"name":"Mandarin Chinese","autonym":"官话; 官話; Guānhuà","family":null,"maps":"China","level":"L","population":0,"latitude":40.020884,"longitude":116.228026,"country_id":"CN","status_id":"1","laravel_through_key":"AO"},{"iso":"mho","glotto_id":"mash1267","iso1":null,"name":"Mashi (Zambia)","autonym":null,"family":null,"maps":"Angola","level":"L","population":20800,"latitude":-16.7255933,"longitude":22.59827,"country_id":"ZM","status_id":"6a","laravel_through_key":"AO"},{"iso":"mxg","glotto_id":"mban1264","iso1":null,"name":"Mbangala","autonym":null,"family":null,"maps":"Angola","level":"L","population":22300,"latitude":-9.15592,"longitude":17.40859,"country_id":"AO","status_id":"5","laravel_through_key":"AO"},{"iso":"mhw","glotto_id":"mbuk1240","iso1":null,"name":"Mbukushu","autonym":"Thimbukushu","family":null,"maps":"Angola","level":"L","population":35100,"latitude":-17.6826675,"longitude":22.5025975,"country_id":"NA","status_id":"5","laravel_through_key":"AO"},{"iso":"mck","glotto_id":"mbun1249","iso1":null,"name":"Mbunda","autonym":" Chimbúùnda","family":null,"maps":"Angola","level":"L","population":156000,"latitude":-14.60299,"longitude":21.97677,"country_id":"AO","status_id":"5","laravel_through_key":"AO"},{"iso":"mfu","glotto_id":"mbwe1238","iso1":null,"name":"Mbwela","autonym":"Ngangela","family":null,"maps":"Angola","level":"L","population":222000,"latitude":-13.32675,"longitude":18.22432,"country_id":"AO","status_id":"5","laravel_through_key":"AO"},{"iso":"ndq","glotto_id":"ndom1244","iso1":null,"name":"Ndombe","autonym":null,"family":null,"maps":"Angola","level":"L","population":22300,"latitude":-12.96548,"longitude":13.37097,"country_id":"AO","status_id":"6a","laravel_through_key":"AO"},{"iso":"ndo","glotto_id":"ndon1254","iso1":"ng","name":"Ndonga","autonym":"ndonga","family":null,"maps":"Namibia","level":"L","population":1070000,"latitude":-17.64172,"longitude":19.163085,"country_id":"NA","status_id":"5","laravel_through_key":"AO"},{"iso":"nne","glotto_id":"ngan1300","iso1":null,"name":"Ngandyera","autonym":"Oshiwambo","family":null,"maps":null,"level":"L","population":13100,"latitude":-16.63593,"longitude":21.19282,"country_id":"AO","status_id":"6a","laravel_through_key":"AO"},{"iso":"nkn","glotto_id":"nkan1238","iso1":null,"name":"Nkangala","autonym":"Mbúùnda","family":null,"maps":"Angola","level":"L","population":22300,"latitude":-13.36882,"longitude":19.04755,"country_id":"AO","status_id":"6a","laravel_through_key":"AO"},{"iso":"khu","glotto_id":"nkhu1238","iso1":null,"name":"Nkhumbi","autonym":"Khumbi","family":null,"maps":"Angola","level":"L","population":150000,"latitude":-15.41256,"longitude":13.970369999999999,"country_id":"AO","status_id":"5","laravel_through_key":"AO"},{"iso":"nsx","glotto_id":"nson1238","iso1":null,"name":"Nsongo","autonym":"Nsongo","family":null,"maps":"Angola","level":"L","population":50000,"latitude":-10.51661,"longitude":16.73478,"country_id":"AO","status_id":"5","laravel_through_key":"AO"},{"iso":"nyk","glotto_id":"nyan1305","iso1":null,"name":"Nyaneka","autonym":"Lunyaneka","family":null,"maps":"Angola","level":"L","population":300000,"latitude":-15.96162,"longitude":14.94004,"country_id":"AO","status_id":"5","laravel_through_key":"AO"},{"iso":"nba","glotto_id":"nyem1238","iso1":null,"name":"Nyemba","autonym":"Ngangela","family":null,"maps":"Angola","level":"L","population":222000,"latitude":-15.70896,"longitude":18.25152,"country_id":"AO","status_id":"5","laravel_through_key":"AO"},{"iso":"nye","glotto_id":"nyen1257","iso1":null,"name":"Nyengo","autonym":null,"family":null,"maps":"Angola","level":"L","population":9380,"latitude":-17.23137,"longitude":22.47872,"country_id":"AO","status_id":"6a","laravel_through_key":"AO"},{"iso":"por","glotto_id":"port1283","iso1":"pt","name":"Portuguese","autonym":"português","family":null,"maps":"Portugal and Spain","level":"L","population":10000000,"latitude":42.03412,"longitude":-4.18815,"country_id":"PT","status_id":"1","laravel_through_key":"AO"},{"iso":"rnd","glotto_id":"ruun1238","iso1":null,"name":"Ruund","autonym":"Chiluwunda","family":null,"maps":"Angola","level":"L","population":153000,"latitude":-8.869705,"longitude":21.41641,"country_id":"CD","status_id":"5","laravel_through_key":"AO"},{"iso":"smd","glotto_id":"sama1300","iso1":null,"name":"Sama","autonym":"Quissama","family":null,"maps":"Angola","level":"L","population":24200,"latitude":-9.86931,"longitude":13.87134,"country_id":"AO","status_id":"6a","laravel_through_key":"AO"},{"iso":"kwy","glotto_id":"sans1272","iso1":null,"name":"San Salvador Kongo","autonym":"Kikongo","family":null,"maps":"Southern Democratic Republic of Congo","level":"L","population":537000,"latitude":-5.33539,"longitude":13.35865,"country_id":"CD","status_id":"6a","laravel_through_key":"AO"},{"iso":"sie","glotto_id":"sima1258","iso1":null,"name":"Simaa","autonym":null,"family":null,"maps":"Zambia","level":"L","population":162000,"latitude":-15.7434,"longitude":22.64548,"country_id":"ZM","status_id":"6a","laravel_through_key":"AO"},{"iso":"ssb","glotto_id":"sout2918","iso1":null,"name":"Southern Sama","autonym":"Bajau","family":null,"maps":"Malaysia - Sabah","level":"L","population":10000,"latitude":5.075455,"longitude":119.379615,"country_id":"PH","status_id":"5","laravel_through_key":"AO"},{"iso":"spa","glotto_id":"stan1288","iso1":"es","name":"Spanish","autonym":"Castilian","family":null,"maps":"Andorra and France","level":"L","population":28200000,"latitude":40.4414175,"longitude":-1.11788,"country_id":"ES","status_id":"1","laravel_through_key":"AO"},{"iso":"fra","glotto_id":"stan1290","iso1":"fr","name":"French","autonym":"français","family":null,"maps":"Andorra and France","level":"L","population":53200000,"latitude":48,"longitude":2,"country_id":"FR","status_id":"1","laravel_through_key":"AO"},{"iso":"eng","glotto_id":"stan1293","iso1":"en","name":"English","autonym":null,"family":null,"maps":"Cook Islands","level":"L","population":null,"latitude":53,"longitude":-1,"country_id":"GB","status_id":null,"laravel_through_key":"AO"},{"iso":"sub","glotto_id":"suku1259","iso1":null,"name":"Suku","autonym":"Kisuku","family":null,"maps":"Southern Democratic Republic of Congo","level":"L","population":50000,"latitude":-5.76495,"longitude":17.77356,"country_id":"CD","status_id":"6a","laravel_through_key":"AO"},{"iso":"umb","glotto_id":"umbu1257","iso1":null,"name":"Umbundu","autonym":"South Mbundu","family":null,"maps":"Angola","level":"L","population":4000000,"latitude":-12.47635,"longitude":14.41483,"country_id":"AO","status_id":"3","laravel_through_key":"AO"},{"iso":"vaj","glotto_id":"vase1234","iso1":null,"name":"Sekele","autonym":"Northern ǃKung","family":null,"maps":null,"level":"L","population":61300,"latitude":-18.26747,"longitude":18.18637,"country_id":"NA","status_id":"6a","laravel_through_key":"AO"},{"iso":"yaf","glotto_id":"yaka1269","iso1":null,"name":"Yaka (Democratic Republic of Congo)","autonym":"Iyaka","family":null,"maps":"Angola","level":"L","population":700000,"latitude":-6.939645,"longitude":16.996505,"country_id":"CD","status_id":"6a","laravel_through_key":"AO"},{"iso":"yax","glotto_id":"yaum1238","iso1":null,"name":"Yauma","autonym":" Chimbúùnda","family":null,"maps":"Angola","level":"L","population":17100,"latitude":-15.821495,"longitude":21.881345,"country_id":"AO","status_id":"6a","laravel_through_key":"AO"},{"iso":"yom","glotto_id":"yomb1244","iso1":null,"name":"Yombe","autonym":"Kikongo","family":null,"maps":"Angola","level":"L","population":1056400,"latitude":-4.8622667,"longitude":12.63624,"country_id":"CD","status_id":"5","laravel_through_key":"AO"},{"iso":"dhm","glotto_id":"zemb1238","iso1":null,"name":"Zemba","autonym":"Dhimba","family":null,"maps":"Angola","level":"L","population":18000,"latitude":-17.295835,"longitude":13.44244,"country_id":"AO","status_id":"5","laravel_through_key":"AO"},{"iso":"nql","glotto_id":"ngen1257","iso1":null,"name":"Ngendelengo","autonym":null,"family":null,"maps":null,"level":"L","population":null,"latitude":null,"longitude":null,"country_id":null,"status_id":null,"laravel_through_key":"AO"},{"iso":"olu","glotto_id":null,"iso1":null,"name":"Kuvale","autonym":null,"family":null,"maps":null,"level":"L","population":null,"latitude":null,"longitude":null,"country_id":"AO","status_id":null,"laravel_through_key":"AO"},{"iso":"xdo","glotto_id":"kwan1289","iso1":null,"name":"Kwandu","autonym":null,"family":null,"maps":null,"level":"L","population":null,"latitude":null,"longitude":null,"country_id":null,"status_id":null,"laravel_through_key":"AO"}],"wwl_current":null},{"id":"AR","iso_a3":"ARG","fips":"AR","wfb":1,"ethnologue":1,"continent":"SA","name":"Argentina","autonym":null,"introduction":"In 1816, the United Provinces of the Rio Plata declared their independence from Spain. After Bolivia, Paraguay, and Uruguay went their separate ways, the area that remained became Argentina. The country's population and culture were heavily shaped by immigrants from throughout Europe, with Italy and Spain providing the largest percentage of newcomers from 1860 to 1930. Up until about the mid-20th century, much of Argentina's history was dominated by periods of internal political conflict between Federalists and Unitarians and between civilian and military factions. ++ After World War II, an era of Peronist populism and direct and indirect military interference in subsequent governments was followed by a military junta that took power in 1976. Democracy returned in 1983 after a failed bid to seize the Falkland Islands (Islas Malvinas) by force, and has persisted despite numerous challenges, the most formidable of which was a severe economic crisis in 2001-02 that led to violent public protests and the successive resignations of several presidents.","overview":"Argentina is a massive South American nation with terrain encompassing Andes mountains, glacial lakes and Pampas grassland, the traditional grazing ground of its famed beef cattle. The country is famous for tango dance and music. Its big, cosmopolitan capital, Buenos Aires, is centered on the Plaza de Mayo, lined with stately 19th-century buildings including Casa Rosada, the iconic, balconied presidential palace.","created_by":1,"updated_by":1,"created_at":"2019-05-02T21:30:22.000000Z","updated_at":"2020-12-18T19:09:42.000000Z","status":"published","population":45195774,"country_unique":1,"refugee_count":3881,"literacy":98,"languages_count":60,"languages":[{"iso":"axb","glotto_id":"abip1241","iso1":null,"name":"Abipon","autonym":null,"family":null,"maps":null,"level":"E","population":0,"latitude":-29,"longitude":-61,"country_id":"AR","status_id":"10","laravel_through_key":"AR"},{"iso":"aed","glotto_id":"arge1236","iso1":null,"name":"Argentine Sign Language","autonym":null,"family":null,"maps":null,"level":"L","population":null,"latitude":-34.79695,"longitude":-59.17984,"country_id":"AR","status_id":"6a","laravel_through_key":"AR"},{"iso":"bel","glotto_id":"bela1254","iso1":"be","name":"Belarusian","autonym":"беларуская мова biełaruskaja mova","family":null,"maps":null,"level":"L","population":6720000,"latitude":53.230655,"longitude":25.603835,"country_id":"BY","status_id":"1","laravel_through_key":"AR"},{"iso":"ayr","glotto_id":"cent2142","iso1":null,"name":"Central Aymara","autonym":"Aymar aru","family":null,"maps":"Argentina and Chile","level":"L","population":1790000,"latitude":-17,"longitude":-68.5,"country_id":"BO","status_id":"6b","laravel_through_key":"AR"},{"iso":"nhd","glotto_id":"chir1286","iso1":null,"name":"Chiripá","autonym":"Ava","family":null,"maps":"Southern Brazil","level":"L","population":11900,"latitude":-25.6521433,"longitude":-55.0509867,"country_id":"PY","status_id":"6b","laravel_through_key":"AR"},{"iso":"hrv","glotto_id":"croa1245","iso1":"hr","name":"Croatian","autonym":"hrvatski","family":null,"maps":null,"level":"L","population":3980000,"latitude":45.2006017,"longitude":16.826005,"country_id":"HR","status_id":"1","laravel_through_key":"AR"},{"iso":"ces","glotto_id":"czec1258","iso1":"cs","name":"Czech","autonym":"čeština","family":null,"maps":null,"level":"L","population":9250000,"latitude":49.873398,"longitude":15.10437,"country_id":"CZ","status_id":"1","laravel_through_key":"AR"},{"iso":"ydd","glotto_id":"east2295","iso1":null,"name":"Eastern Yiddish","autonym":"ייִדיש","family":null,"maps":null,"level":"L","population":1762320,"latitude":51.75,"longitude":19.42,"country_id":"UA","status_id":"4","laravel_through_key":"AR"},{"iso":"gui","glotto_id":"east2555","iso1":null,"name":"Eastern Bolivian Guaraní","autonym":"Western Argentine Guaraní","family":null,"maps":"Argentina and Chile","level":"L","population":33700,"latitude":-21.090935,"longitude":-61.717855,"country_id":"BO","status_id":"5","laravel_through_key":"AR"},{"iso":"glg","glotto_id":"gali1258","iso1":"gl","name":"Galician","autonym":"galego","family":null,"maps":"Portugal and Spain","level":"L","population":3170000,"latitude":42.244575,"longitude":-7.534295,"country_id":"ES","status_id":"2","laravel_through_key":"AR"},{"iso":"ita","glotto_id":"ital1282","iso1":"it","name":"Italian","autonym":"italiano","family":null,"maps":"Liechtenstein and Switzerland","level":"L","population":55000000,"latitude":43.046411,"longitude":12.648925,"country_id":"IT","status_id":"1","laravel_through_key":"AR"},{"iso":"crt","glotto_id":"iyoj1235","iso1":null,"name":"Iyojwa'ja Chorote","autonym":"Iyojwa'ja Chorote","family":null,"maps":"Argentina and Chile","level":"L","population":800,"latitude":-22.1896,"longitude":-63.23831,"country_id":"AR","status_id":"6b","laravel_through_key":"AR"},{"iso":"crq","glotto_id":"iyow1239","iso1":null,"name":"Iyo'wujwa Chorote","autonym":"Chorote","family":null,"maps":"Argentina and Chile","level":"L","population":1500,"latitude":-22.2067067,"longitude":-62.6507667,"country_id":"AR","status_id":"5","laravel_through_key":"AR"},{"iso":"kea","glotto_id":"kabu1256","iso1":null,"name":"Kabuverdianu","autonym":"Kriolu","family":null,"maps":null,"level":"L","population":138842,"latitude":15.05863,"longitude":-23.61476,"country_id":"CV","status_id":"4","laravel_through_key":"AR"},{"iso":"kgk","glotto_id":"kaiw1246","iso1":null,"name":"Kaiwá","autonym":"Kayova","family":null,"maps":"Southern Brazil","level":"L","population":18000,"latitude":-24.58898,"longitude":-54.681455,"country_id":"BR","status_id":"5","laravel_through_key":"AR"},{"iso":"lao","glotto_id":"laoo1244","iso1":"lo","name":"Lao","autonym":"ພາສາລາ","family":null,"maps":"Cambodia","level":"L","population":3000000,"latitude":16.07262,"longitude":104.56848,"country_id":"LA","status_id":"1","laravel_through_key":"AR"},{"iso":"cmn","glotto_id":"mand1415","iso1":null,"name":"Mandarin Chinese","autonym":"官话; 官話; Guānhuà","family":null,"maps":"China","level":"L","population":0,"latitude":40.020884,"longitude":116.228026,"country_id":"CN","status_id":"1","laravel_through_key":"AR"},{"iso":"arn","glotto_id":"mapu1245","iso1":null,"name":"Mapudungun","autonym":"Mapudungun","family":null,"maps":"Argentina and Chile","level":"L","population":200000,"latitude":-38.73917,"longitude":-71.27701,"country_id":"CL","status_id":"4","laravel_through_key":"AR"},{"iso":"gun","glotto_id":"mbya1239","iso1":null,"name":"Mbyá Guaraní","autonym":" nhandeayvu","family":null,"maps":"Argentina and Chile","level":"L","population":25450,"latitude":-26.0188433,"longitude":-52.71103,"country_id":"BR","status_id":"4","laravel_through_key":"AR"},{"iso":"moc","glotto_id":"moco1246","iso1":null,"name":"Mocoví","autonym":null,"family":null,"maps":"Argentina and Chile","level":"L","population":4530,"latitude":-28.09699,"longitude":-60.41448,"country_id":"AR","status_id":"7","laravel_through_key":"AR"},{"iso":"ell","glotto_id":"mode1248","iso1":"el","name":"Modern Greek (1453-)","autonym":"Νέα Ελληνικά","family":null,"maps":"Cyprus","level":"L","population":10700000,"latitude":42.3223856,"longitude":24.8699378,"country_id":"GR","status_id":"1","laravel_through_key":"AR"},{"iso":"cag","glotto_id":"niva1238","iso1":null,"name":"Nivaclé","autonym":"Niwaklé","family":null,"maps":"Argentina and Chile","level":"L","population":13700,"latitude":-22.85571,"longitude":-61.76059,"country_id":"PY","status_id":"5","laravel_through_key":"AR"},{"iso":"apc","glotto_id":"nort3139","iso1":null,"name":"North Levantine Arabic","autonym":"اللهجة الشامي الشمال","family":null,"maps":"Jordan and Syria","level":"L","population":1000000,"latitude":34.1709325,"longitude":36.0468425,"country_id":"SY","status_id":"3","laravel_through_key":"AR"},{"iso":"hye","glotto_id":"nucl1235","iso1":"hy","name":"Armenian","autonym":"հայերէն\/հայերեն","family":null,"maps":"Azerbaijan","level":"L","population":3140000,"latitude":40,"longitude":45,"country_id":"AM","status_id":"1","laravel_through_key":"AR"},{"iso":"tur","glotto_id":"nucl1301","iso1":"tr","name":"Turkish","autonym":"Türkçe","family":null,"maps":"Cyprus","level":"L","population":46300000,"latitude":39.866667,"longitude":32.866667,"country_id":"TR","status_id":"1","laravel_through_key":"AR"},{"iso":"jpn","glotto_id":"nucl1643","iso1":"ja","name":"Japanese","autonym":"日本語","family":null,"maps":"Japan","level":"L","population":121000000,"latitude":35,"longitude":135,"country_id":"JP","status_id":"1","laravel_through_key":"AR"},{"iso":"ona","glotto_id":"onaa1245","iso1":null,"name":"Ona","autonym":"Selk'nam","family":null,"maps":null,"level":"L","population":null,"latitude":-54,"longitude":-68.5,"country_id":"AR","status_id":"10","laravel_through_key":"AR"},{"iso":"gug","glotto_id":"para1311","iso1":null,"name":"Paraguayan Guaraní","autonym":"Paraguayan Guarani","family":null,"maps":null,"level":"L","population":4650000,"latitude":-25.60551,"longitude":-57.08816,"country_id":"PY","status_id":"4","laravel_through_key":"AR"},{"iso":"plg","glotto_id":"pila1245","iso1":null,"name":"Pilagá","autonym":null,"family":null,"maps":"Argentina and Chile","level":"L","population":4000,"latitude":-25.00585,"longitude":-60.15372,"country_id":"AR","status_id":"6b","laravel_through_key":"AR"},{"iso":"pdt","glotto_id":"plau1238","iso1":null,"name":"Plautdietsch","autonym":"Plautdietsch","family":null,"maps":"Belize","level":"L","population":402900,"latitude":12.046615,"longitude":-81.35247,"country_id":"CA","status_id":"5","laravel_through_key":"AR"},{"iso":"pol","glotto_id":"poli1260","iso1":"pl","name":"Polish","autonym":"polski","family":null,"maps":"Ukraine","level":"L","population":36600000,"latitude":51.843923,"longitude":18.625487,"country_id":"PL","status_id":"1","laravel_through_key":"AR"},{"iso":"por","glotto_id":"port1283","iso1":"pt","name":"Portuguese","autonym":"português","family":null,"maps":"Portugal and Spain","level":"L","population":10000000,"latitude":42.03412,"longitude":-4.18815,"country_id":"PT","status_id":"1","laravel_through_key":"AR"},{"iso":"pue","glotto_id":"puel1244","iso1":null,"name":"Puelche","autonym":"Gennaken","family":null,"maps":null,"level":"E","population":0,"latitude":-36.63757,"longitude":-62.94127,"country_id":"AR","status_id":"10","laravel_through_key":"AR"},{"iso":"ron","glotto_id":"roma1327","iso1":"ro","name":"Romanian","autonym":"Daco-Romanian","family":null,"maps":"Ukraine","level":"L","population":19700000,"latitude":46.391292,"longitude":24.22557,"country_id":"RO","status_id":"1","laravel_through_key":"AR"},{"iso":"rus","glotto_id":"russ1263","iso1":"ru","name":"Russian","autonym":"русский язык","family":null,"maps":"China","level":"L","population":null,"latitude":53.919516,"longitude":72.392575,"country_id":"RU","status_id":"1","laravel_through_key":"AR"},{"iso":"qus","glotto_id":"sant1432","iso1":null,"name":"Santiago del Estero Quichua","autonym":null,"family":null,"maps":"Argentina and Chile","level":"L","population":50000,"latitude":-27.82096,"longitude":-63.24657,"country_id":"AR","status_id":"6a","laravel_through_key":"AR"},{"iso":"srp","glotto_id":"serb1264","iso1":"sr","name":"Serbian","autonym":"српски \/ srpski","family":null,"maps":"Greece and The Former Yugoslav Republic of Macedonia","level":"L","population":4500000,"latitude":44.3238443,"longitude":21.9191843,"country_id":"RS","status_id":"1","laravel_through_key":"AR"},{"iso":"slv","glotto_id":"slov1268","iso1":"sl","name":"Slovenian","autonym":"Slovenian","family":null,"maps":null,"level":"L","population":1730000,"latitude":46.2542575,"longitude":14.7765875,"country_id":"SI","status_id":"1","laravel_through_key":"AR"},{"iso":"slk","glotto_id":"slov1269","iso1":"sk","name":"Slovak","autonym":"Slovakian","family":null,"maps":null,"level":"L","population":4610000,"latitude":48.545705,"longitude":18.78479,"country_id":"SK","status_id":"1","laravel_through_key":"AR"},{"iso":"quh","glotto_id":"sout2991","iso1":null,"name":"South Bolivian Quechua","autonym":"Uralan Buliwya runasimi","family":null,"maps":"Argentina and Chile","level":"L","population":2780000,"latitude":-20.920095,"longitude":-66.333145,"country_id":"BO","status_id":"5","laravel_through_key":"AR"},{"iso":"ajp","glotto_id":"sout3123","iso1":null,"name":"South Levantine Arabic","autonym":"اللهجة الشامية الجنوبية","family":null,"maps":"Jordan and Syria","level":"L","population":3500000,"latitude":31.560116,"longitude":38.083716,"country_id":"JO","status_id":"3","laravel_through_key":"AR"},{"iso":"spa","glotto_id":"stan1288","iso1":"es","name":"Spanish","autonym":"Castilian","family":null,"maps":"Andorra and France","level":"L","population":28200000,"latitude":40.4414175,"longitude":-1.11788,"country_id":"ES","status_id":"1","laravel_through_key":"AR"},{"iso":"cat","glotto_id":"stan1289","iso1":"ca","name":"Catalan","autonym":"català\/valencià","family":null,"maps":"Andorra and France","level":"L","population":11200000,"latitude":41.89826,"longitude":3.393755,"country_id":"ES","status_id":"2","laravel_through_key":"AR"},{"iso":"fra","glotto_id":"stan1290","iso1":"fr","name":"French","autonym":"français","family":null,"maps":"Andorra and France","level":"L","population":53200000,"latitude":48,"longitude":2,"country_id":"FR","status_id":"1","laravel_through_key":"AR"},{"iso":"eng","glotto_id":"stan1293","iso1":"en","name":"English","autonym":null,"family":null,"maps":"Cook Islands","level":"L","population":null,"latitude":53,"longitude":-1,"country_id":"GB","status_id":null,"laravel_through_key":"AR"},{"iso":"deu","glotto_id":"stan1295","iso1":"de","name":"German","autonym":"Deutsch","family":null,"maps":"Belgium, Luxembourg and Netherlands","level":"L","population":75300000,"latitude":48.648954,"longitude":12.4676233,"country_id":"DE","status_id":"1","laravel_through_key":"AR"},{"iso":"tpj","glotto_id":"tapi1253","iso1":null,"name":"Tapieté","autonym":"Western Argentine Guaraní","family":null,"maps":"Argentina and Chile","level":"L","population":1000,"latitude":-21.4168867,"longitude":-62.68397,"country_id":"PY","status_id":"6b","laravel_through_key":"AR"},{"iso":"teh","glotto_id":"tehu1242","iso1":null,"name":"Tehuelche","autonym":"Patagón","family":null,"maps":null,"level":"L","population":200,"latitude":-47.57963,"longitude":-68.32346,"country_id":"AR","status_id":"9","laravel_through_key":"AR"},{"iso":"tob","glotto_id":"toba1269","iso1":null,"name":"Toba","autonym":null,"family":null,"maps":"Argentina and Chile","level":"L","population":19800,"latitude":-24.40253,"longitude":-60.4472867,"country_id":"AR","status_id":"6b","laravel_through_key":"AR"},{"iso":"tru","glotto_id":"turo1239","iso1":null,"name":"Turoyo","autonym":"Sūrayṯ","family":null,"maps":"Jordan and Syria","level":"L","population":3000,"latitude":37.22746,"longitude":42.1451033,"country_id":"TR","status_id":"6b","laravel_through_key":"AR"},{"iso":"ukr","glotto_id":"ukra1253","iso1":"uk","name":"Ukrainian","autonym":"українська моваukrayins'ka mova","family":null,"maps":"Ukraine","level":"L","population":31100000,"latitude":48.175842,"longitude":24.395786,"country_id":"UA","status_id":"1","laravel_through_key":"AR"},{"iso":"vil","glotto_id":"vile1241","iso1":null,"name":"Vilela","autonym":null,"family":null,"maps":null,"level":"L","population":null,"latitude":-27.40626,"longitude":-58.96612,"country_id":"AR","status_id":"10","laravel_through_key":"AR"},{"iso":"rmy","glotto_id":"vlax1238","iso1":null,"name":"Vlax Romani","autonym":"řomani čhib","family":null,"maps":null,"level":"L","population":11000000,"latitude":46.8191237,"longitude":14.8450926,"country_id":"RO","status_id":"6b","laravel_through_key":"AR"},{"iso":"cym","glotto_id":"wels1247","iso1":"cy","name":"Welsh","autonym":"Cymraeg","family":null,"maps":"Ireland and United Kingdom","level":"L","population":1971,"latitude":52,"longitude":-4,"country_id":"GB","status_id":"2","laravel_through_key":"AR"},{"iso":"mtp","glotto_id":"wich1262","iso1":null,"name":"Wichí Lhamtés Nocten","autonym":"Weenhayek","family":null,"maps":"Argentina and Chile","level":"L","population":1810,"latitude":-21.987995,"longitude":-63.59711,"country_id":"BO","status_id":"5","laravel_through_key":"AR"},{"iso":"wlv","glotto_id":"wich1263","iso1":null,"name":"Wichí Lhamtés Vejoz","autonym":null,"family":null,"maps":"Argentina and Chile","level":"L","population":25000,"latitude":-24.21891,"longitude":-61.91171,"country_id":"AR","status_id":"5","laravel_through_key":"AR"},{"iso":"mzh","glotto_id":"wich1264","iso1":null,"name":"Wichí Lhamtés Güisnay","autonym":"Wiznay","family":null,"maps":"Argentina and Chile","level":"L","population":15000,"latitude":-23.16326,"longitude":-62.17574,"country_id":"AR","status_id":"6b","laravel_through_key":"AR"},{"iso":"yag","glotto_id":"yama1264","iso1":null,"name":"Yámana","autonym":"Yámana","family":null,"maps":null,"level":"L","population":100,"latitude":-55.27479,"longitude":-68.26479,"country_id":"CL","status_id":"8b","laravel_through_key":"AR"},{"iso":"hyw","glotto_id":"homs1234","iso1":null,"name":"Western Armenian","autonym":null,"family":null,"maps":"Armenia","level":"L","population":null,"latitude":null,"longitude":null,"country_id":null,"status_id":null,"laravel_through_key":"AR"},{"iso":"kor","glotto_id":"kore1284","iso1":"ko","name":"Korean","autonym":"한국어","family":null,"maps":"China","level":"L","population":42000000,"latitude":37.5,"longitude":128,"country_id":"KR","status_id":"1","laravel_through_key":"AR"}],"wwl_current":null},{"id":"AS","iso_a3":"ASM","fips":"AQ","wfb":1,"ethnologue":1,"continent":"OC","name":"American Samoa","autonym":null,"introduction":"Settled as early as 1000 B.C., Samoa was not reached by European explorers until the 18th century. International rivalries in the latter half of the 19th century were settled by an 1899 treaty in which Germany and the US divided the Samoan archipelago. The US formally occupied its portion - a smaller group of eastern islands with the excellent harbor of Pago Pago - the following year.","overview":"American Samoa is a U.S. territory covering 7 South Pacific islands and atolls. Tutuila, the largest island, is home to the capital Pago Pago, whose natural harbor is framed by volcanic peaks including 1,716-ft.-high Rainmaker Mountain. Divided between the islands Tutuila, Ofu and Ta‘ū, the National Park of American Samoa highlights the territory's tropical scenery with rainforests, beaches and reefs.","created_by":1,"updated_by":1,"created_at":"2019-05-02T21:30:22.000000Z","updated_at":"2020-12-16T20:33:43.000000Z","status":"published","population":55191,"country_unique":0,"refugee_count":0,"literacy":97,"languages_count":8,"languages":[{"iso":"kor","glotto_id":"kore1284","iso1":"ko","name":"Korean","autonym":"한국어","family":null,"maps":"China","level":"L","population":42000000,"latitude":37.5,"longitude":128,"country_id":"KR","status_id":"1","laravel_through_key":"AS"},{"iso":"jpn","glotto_id":"nucl1643","iso1":"ja","name":"Japanese","autonym":"日本語","family":null,"maps":"Japan","level":"L","population":121000000,"latitude":35,"longitude":135,"country_id":"JP","status_id":"1","laravel_through_key":"AS"},{"iso":"smo","glotto_id":"samo1305","iso1":"sm","name":"Samoan","autonym":"Gagana faʻa Sāmoa","family":null,"maps":null,"level":"L","population":199000,"latitude":-13.92,"longitude":-171.83,"country_id":"WS","status_id":"1","laravel_through_key":"AS"},{"iso":"eng","glotto_id":"stan1293","iso1":"en","name":"English","autonym":null,"family":null,"maps":"Cook Islands","level":"L","population":null,"latitude":53,"longitude":-1,"country_id":"GB","status_id":null,"laravel_through_key":"AS"},{"iso":"tgl","glotto_id":"taga1270","iso1":"tl","name":"Tagalog","autonym":"ᜏᜒᜃᜅ᜔ ᜆᜄᜎᜓᜄ᜔","family":null,"maps":"Northern Philippines","level":"L","population":21500000,"latitude":14.06,"longitude":121.74695,"country_id":"PH","status_id":"3","laravel_through_key":"AS"},{"iso":"tkl","glotto_id":"toke1240","iso1":null,"name":"Tokelau","autonym":"Tokelau","family":null,"maps":null,"level":"L","population":1410,"latitude":-9.170975,"longitude":-171.816101,"country_id":"TK","status_id":"5","laravel_through_key":"AS"},{"iso":"ton","glotto_id":"tong1325","iso1":"to","name":"Tonga (Tonga Islands)","autonym":"lea faka-Tonga","family":null,"maps":"Tonga","level":"L","population":126390,"latitude":-21.17,"longitude":-175.25,"country_id":"TO","status_id":"1","laravel_through_key":"AS"},{"iso":"kor","glotto_id":"kore1284","iso1":"ko","name":"Korean","autonym":"한국어","family":null,"maps":"China","level":"L","population":42000000,"latitude":37.5,"longitude":128,"country_id":"KR","status_id":"1","laravel_through_key":"AS"}],"wwl_current":null},{"id":"AT","iso_a3":"AUT","fips":"AU","wfb":1,"ethnologue":1,"continent":"EU","name":"Austria","autonym":null,"introduction":"Once the center of power for the large Austro-Hungarian Empire, Austria was reduced to a small republic after its defeat in World War I. Following annexation by Nazi Germany in 1938 and subsequent occupation by the victorious Allies in 1945, Austria's status remained unclear for a decade. A State Treaty signed in 1955 ended the occupation, recognized Austria's independence, and forbade unification with Germany. A constitutional law that same year declared the country's \\\"perpetual neutrality\\\" as a condition for Soviet military withdrawal. The Soviet Union's collapse in 1991 and Austria's entry into the EU in 1995 have altered the meaning of this neutrality. A prosperous, democratic country, Austria entered the EU Economic and Monetary Union in 1999.","overview":"Austria is a German-speaking country in Central Europe, characterized by mountain villages, baroque architecture, Imperial history and rugged Alpine terrain. Vienna, its Danube River capital, is home to the Schönbrunn and Hofburg palaces. It has counted Mozart, Strauss and Freud among its residents. The country’s other notable regions include the northern Bohemian Forest, Traunsee Lake and eastern hillside vineyards.","created_by":1,"updated_by":1,"created_at":"2019-05-02T21:30:22.000000Z","updated_at":"2020-12-18T19:09:46.000000Z","status":"published","population":9006398,"country_unique":1,"refugee_count":135955,"literacy":98,"languages_count":43,"languages":[{"iso":"aii","glotto_id":"assy1241","iso1":null,"name":"Assyrian Neo-Aramaic","autonym":"Sūreṯ","family":null,"maps":"Iraq","level":"L","population":219330,"latitude":36.75,"longitude":43,"country_id":"IQ","status_id":"6b","laravel_through_key":"AT"},{"iso":"asq","glotto_id":"aust1252","iso1":null,"name":"Austrian Sign Language","autonym":"Österreichische Gebärdensprache (ÖGS)","family":null,"maps":null,"level":"L","population":null,"latitude":48.11967,"longitude":16.22499,"country_id":"AT","status_id":"6a","laravel_through_key":"AT"},{"iso":"bar","glotto_id":"bava1246","iso1":null,"name":"Bavarian","autonym":"Boarisch","family":null,"maps":null,"level":"L","population":13259000,"latitude":47.923164,"longitude":13.246026,"country_id":"AT","status_id":"5","laravel_through_key":"AT"},{"iso":"bos","glotto_id":"bosn1245","iso1":"bs","name":"Bosnian","autonym":"босански","family":null,"maps":null,"level":"L","population":2000000,"latitude":42.93308,"longitude":17.67044,"country_id":"BA","status_id":"3","laravel_through_key":"AT"},{"iso":"rmc","glotto_id":"carp1235","iso1":null,"name":"Carpathian Romani","autonym":"Central Romani","family":null,"maps":"Ukraine","level":"L","population":380000,"latitude":48.1967883,"longitude":20.312905,"country_id":"SK","status_id":"5","laravel_through_key":"AT"},{"iso":"che","glotto_id":"chec1245","iso1":"ce","name":"Chechen","autonym":"нохчийн моттnoxçiyn mott","family":null,"maps":"Western Russia","level":"L","population":1330000,"latitude":43.5,"longitude":45.5,"country_id":"RU","status_id":"2","laravel_through_key":"AT"},{"iso":"hrv","glotto_id":"croa1245","iso1":"hr","name":"Croatian","autonym":"hrvatski","family":null,"maps":null,"level":"L","population":3980000,"latitude":45.2006017,"longitude":16.826005,"country_id":"HR","status_id":"1","laravel_through_key":"AT"},{"iso":"ces","glotto_id":"czec1258","iso1":"cs","name":"Czech","autonym":"čeština","family":null,"maps":null,"level":"L","population":9250000,"latitude":49.873398,"longitude":15.10437,"country_id":"CZ","status_id":"1","laravel_through_key":"AT"},{"iso":"nld","glotto_id":"dutc1256","iso1":"nl","name":"Dutch","autonym":"Nederlands","family":null,"maps":"Belgium, Luxembourg and Netherlands","level":"L","population":16400000,"latitude":52,"longitude":5,"country_id":"NL","status_id":"1","laravel_through_key":"AT"},{"iso":"ekk","glotto_id":"ekk","iso1":null,"name":"Standard Estonian","autonym":"eesti keel","family":null,"maps":"Estonia, Latvia and Lithuania","level":"L","population":null,"latitude":null,"longitude":null,"country_id":"EE","status_id":"1","laravel_through_key":"AT"},{"iso":"hin","glotto_id":"hind1269","iso1":"hi","name":"Hindi","autonym":"हिंदी ","family":null,"maps":"India: Index Map","level":"L","population":180000000,"latitude":25,"longitude":77,"country_id":"IN","status_id":"1","laravel_through_key":"AT"},{"iso":"hun","glotto_id":"hung1274","iso1":"hu","name":"Hungarian","autonym":"magyar nyelv","family":null,"maps":"Ukraine","level":"L","population":12501270,"latitude":46.9068586,"longitude":19.6555271,"country_id":"HU","status_id":"1","laravel_through_key":"AT"},{"iso":"ita","glotto_id":"ital1282","iso1":"it","name":"Italian","autonym":"italiano","family":null,"maps":"Liechtenstein and Switzerland","level":"L","population":55000000,"latitude":43.046411,"longitude":12.648925,"country_id":"IT","status_id":"1","laravel_through_key":"AT"},{"iso":"dsb","glotto_id":"lowe1385","iso1":null,"name":"Lower Sorbian","autonym":"dolnoserbšćina","family":null,"maps":null,"level":"L","population":50000,"latitude":51.66213,"longitude":13.9407,"country_id":"DE","status_id":"7","laravel_through_key":"AT"},{"iso":"mkd","glotto_id":"mace1250","iso1":"mk","name":"Macedonian","autonym":"македонскиmakedonski","family":null,"maps":"Greece and The Former Yugoslav Republic of Macedonia","level":"L","population":1390000,"latitude":41.595727,"longitude":21.793212,"country_id":"MK","status_id":"1","laravel_through_key":"AT"},